{"data": {"stations": [{"lon": -76.987125, "rental_uris": {"android": "https://dc.lft.to/lastmile_qr_scan", "ios": "https://dc.lft.to/lastmile_qr_scan"}, "short_name": "32093", "capacity": 19, "region_id": "44", "name": "White Oak Transit Center", "station_id": "6edca550-d78f-4c5d-ad2c-79d1ce88c48d", "lat": 39.04104}, {"lon": -77.127776, "rental_uris": {"android": "https://dc.lft.to/lastmile_qr_scan", "ios": "https://dc.lft.to/lastmile_qr_scan"}, "short_name": "31977", "capacity": 15, "region_id": "41", "name": "Marymount University / Yorktown Blvd & 26th St N", "station_id": "5eb5b5a7-db69-4d8a-a16a-604678a544b7", "lat": 38.904252}, {"lon": -77.178408, "rental_uris": {"android": "https://dc.lft.to/lastmile_qr_scan", "ios": "https://dc.lft.to/lastmile_qr_scan"}, "short_name": "32607", "capacity": 12, "region_id": "152", "name": "S Maple Ave & S Washington St", "station_id": "5e571279-84a3-4dd6-9ee5-6a834e4c624a", "lat": 38.87972}, {"lon": -77.049436, "rental_uris": {"android": "https://dc.lft.to/lastmile_qr_scan", "ios": "https://dc.lft.to/lastmile_qr_scan"}, "short_name": "31929", "capacity": 15, "region_id": "40", "name": "Mt Vernon Trail & S. Washington St.", "station_id": "8d8a3add-40b4-41ba-bffe-5a754ebc1625", "lat": 38.7930647}, {"lon": -76.954803, "rental_uris": {"android": "https://dc.lft.to/lastmile_qr_scan", "ios": "https://dc.lft.to/lastmile_qr_scan"}, "short_name": "32420", "capacity": 17, "region_id": "133", "name": "Prince George's Plaza Metro", "station_id": "ebbf6e18-684d-4fc9-ad4d-c025b8d76556", "lat": 38.965742}, {"lon": -77.000035, "rental_uris": {"android": "https://dc.lft.to/lastmile_qr_scan", "ios": "https://dc.lft.to/lastmile_qr_scan"}, "short_name": "32049", "capacity": 15, "region_id": "44", "name": "WAU / Flower Ave & Division St", "station_id": "0825faf6-1f3f-11e7-bf6b-3863bb334450", "lat": 38.986743}, {"lon": -77.051084, "rental_uris": {"android": "https://dc.lft.to/lastmile_qr_scan", "ios": "https://dc.lft.to/lastmile_qr_scan"}, "short_name": "31275", "capacity": 19, "region_id": "42", "name": "New Hampshire Ave & 24th St NW", "station_id": "0825f723-1f3f-11e7-bf6b-3863bb334450", "lat": 38.901755}, {"lon": -77.0198142528534, "rental_uris": {"android": "https://dc.lft.to/lastmile_qr_scan", "ios": "https://dc.lft.to/lastmile_qr_scan"}, "short_name": "31403", "capacity": 15, "region_id": "42", "name": "5th & Kennedy St NW", "station_id": "082547de-1f3f-11e7-bf6b-3863bb334450", "lat": 38.956555547721955}, {"lon": -76.891247, "rental_uris": {"android": "https://dc.lft.to/lastmile_qr_scan", "ios": "https://dc.lft.to/lastmile_qr_scan"}, "short_name": "32425", "capacity": 15, "region_id": "133", "name": "Crescent Rd & Ridge Rd", "station_id": "10d57c0d-6f3c-45d1-8a12-eda5665e213c", "lat": 39.006191}, {"lon": -77.03037142753601, "rental_uris": {"android": "https://dc.lft.to/lastmile_qr_scan", "ios": "https://dc.lft.to/lastmile_qr_scan"}, "short_name": "32034", "capacity": 15, "region_id": "44", "name": "Silver Spring Transit Center - Top Level", "station_id": "0825b553-1f3f-11e7-bf6b-3863bb334450", "lat": 38.99403485060837}, {"lon": -76.9961330294609, "rental_uris": {"android": "https://dc.lft.to/lastmile_qr_scan", "ios": "https://dc.lft.to/lastmile_qr_scan"}, "short_name": "31534", "capacity": 15, "region_id": "42", "name": "7th & Monroe St NE", "station_id": "066fd95e-0d37-4eea-a027-88c04277bb9d", "lat": 38.932242581555066}, {"lon": -77.0284, "rental_uris": {"android": "https://dc.lft.to/lastmile_qr_scan", "ios": "https://dc.lft.to/lastmile_qr_scan"}, "short_name": "31251", "capacity": 19, "region_id": "42", "name": "12th & L St NW", "station_id": "082537e4-1f3f-11e7-bf6b-3863bb334450", "lat": 38.903819}, {"lon": -77.064016, "rental_uris": {"android": "https://dc.lft.to/lastmile_qr_scan", "ios": "https://dc.lft.to/lastmile_qr_scan"}, "short_name": "31909", "capacity": 15, "region_id": "40", "name": "Mount Vernon Ave & Four Mile Run Park", "station_id": "08262494-1f3f-11e7-bf6b-3863bb334450", "lat": 38.843422}, {"lon": -77.018677, "rental_uris": {"android": "https://dc.lft.to/lastmile_qr_scan", "ios": "https://dc.lft.to/lastmile_qr_scan"}, "short_name": "31265", "capacity": 19, "region_id": "42", "name": "5th St & Massachusetts Ave NW", "station_id": "08254442-1f3f-11e7-bf6b-3863bb334450", "lat": 38.90093}, {"lon": -77.032687, "rental_uris": {"android": "https://dc.lft.to/lastmile_qr_scan", "ios": "https://dc.lft.to/lastmile_qr_scan"}, "short_name": "31131", "capacity": 27, "region_id": "42", "name": "14th & Otis Pl NW", "station_id": "2a43f4e2-4102-482e-8879-245cf7555c6b", "lat": 38.934405}, {"lon": -77.038325, "rental_uris": {"android": "https://dc.lft.to/lastmile_qr_scan", "ios": "https://dc.lft.to/lastmile_qr_scan"}, "short_name": "31290", "capacity": 19, "region_id": "42", "name": "17th St & Independence Ave SW", "station_id": "082623bf-1f3f-11e7-bf6b-3863bb334450", "lat": 38.888097}, {"lon": -77.01033, "rental_uris": {"android": "https://dc.lft.to/lastmile_qr_scan", "ios": "https://dc.lft.to/lastmile_qr_scan"}, "short_name": "31819", "capacity": 15, "region_id": "42", "name": "Joliet St & MLK Ave SW/Bald Eagle Rec Ctr", "station_id": "7c46ff05-4fca-44e6-a50b-acbc57e8100b", "lat": 38.81909}, {"lon": -77.340281, "rental_uris": {"android": "https://dc.lft.to/lastmile_qr_scan", "ios": "https://dc.lft.to/lastmile_qr_scan"}, "short_name": "32220", "capacity": 19, "region_id": "104", "name": "W&OD Trail/Sunset Hills Rd & Isaac Newton Sq", "station_id": "08263fbd-1f3f-11e7-bf6b-3863bb334450", "lat": 38.951419}, {"lon": -77.07386, "rental_uris": {"android": "https://dc.lft.to/lastmile_qr_scan", "ios": "https://dc.lft.to/lastmile_qr_scan"}, "short_name": "31939", "capacity": 17, "region_id": "41", "name": "Wilson Blvd & N Oak St", "station_id": "83c9bc80-bc42-4e5d-9f5e-6c24812e6e37", "lat": 38.895068}, {"lon": -77.022155, "rental_uris": {"android": "https://dc.lft.to/lastmile_qr_scan", "ios": "https://dc.lft.to/lastmile_qr_scan"}, "short_name": "31245", "capacity": 15, "region_id": "42", "name": "7th & R St NW / Shaw Library", "station_id": "082514b8-1f3f-11e7-bf6b-3863bb334450", "lat": 38.912719}, {"lon": -76.988422, "rental_uris": {"android": "https://dc.lft.to/lastmile_qr_scan", "ios": "https://dc.lft.to/lastmile_qr_scan"}, "short_name": "32061", "capacity": 15, "region_id": "44", "name": "New Hampshire & Kirklynn Ave", "station_id": "082650b1-1f3f-11e7-bf6b-3863bb334450", "lat": 38.988101}, {"lon": -77.361516, "rental_uris": {"android": "https://dc.lft.to/lastmile_qr_scan", "ios": "https://dc.lft.to/lastmile_qr_scan"}, "short_name": "32242", "capacity": 12, "region_id": "104", "name": "Market St & St Francis St", "station_id": "0136af02-2670-4042-b5cd-18b46c15c0c1", "lat": 38.95866}, {"lon": -77.008911, "rental_uris": {"android": "https://dc.lft.to/lastmile_qr_scan", "ios": "https://dc.lft.to/lastmile_qr_scan"}, "short_name": "31637", "capacity": 19, "region_id": "42", "name": "North Capitol St & G Pl NE", "station_id": "0825be05-1f3f-11e7-bf6b-3863bb334450", "lat": 38.899703}, {"lon": -76.988355, "rental_uris": {"android": "https://dc.lft.to/lastmile_qr_scan", "ios": "https://dc.lft.to/lastmile_qr_scan"}, "short_name": "31619", "capacity": 33, "region_id": "42", "name": "Lincoln Park / 13th & East Capitol St NE ", "station_id": "0824c229-1f3f-11e7-bf6b-3863bb334450", "lat": 38.890461}, {"lon": -77.007003, "rental_uris": {"android": "https://dc.lft.to/lastmile_qr_scan", "ios": "https://dc.lft.to/lastmile_qr_scan"}, "short_name": "31427", "capacity": 15, "name": "Kansas Ave & Tuckerman St NW / Lamond Rec ", "station_id": "1934289487117353510", "lat": 38.967492}, {"lon": -76.997226, "rental_uris": {"android": "https://dc.lft.to/lastmile_qr_scan", "ios": "https://dc.lft.to/lastmile_qr_scan"}, "short_name": "31528", "capacity": 19, "region_id": "42", "name": "John McCormack Rd NE", "station_id": "8bbafd08-edb1-426d-94f4-c7b7d9be34dd", "lat": 38.938889}, {"lon": -76.913563, "rental_uris": {"android": "https://dc.lft.to/lastmile_qr_scan", "ios": "https://dc.lft.to/lastmile_qr_scan"}, "short_name": "31714", "capacity": 19, "region_id": "42", "name": "61st St & Banks Pl NE", "station_id": "08263cab-1f3f-11e7-bf6b-3863bb334450", "lat": 38.891805}, {"lon": -76.9678448436025, "rental_uris": {"android": "https://dc.lft.to/lastmile_qr_scan", "ios": "https://dc.lft.to/lastmile_qr_scan"}, "short_name": "31716", "capacity": 19, "region_id": "42", "name": "Kingman Island/The Fields at RFK", "station_id": "bed9b757-0df2-4a97-a6ac-415db00e82c8", "lat": 38.89595455700754}, {"lon": -77.028694, "rental_uris": {"android": "https://dc.lft.to/lastmile_qr_scan", "ios": "https://dc.lft.to/lastmile_qr_scan"}, "short_name": "31248", "capacity": 35, "region_id": "42", "name": "Smithsonian-National Mall / Jefferson Dr & 12th St SW", "station_id": "082522f0-1f3f-11e7-bf6b-3863bb334450", "lat": 38.888774}, {"lon": -76.938248, "rental_uris": {"android": "https://dc.lft.to/lastmile_qr_scan", "ios": "https://dc.lft.to/lastmile_qr_scan"}, "short_name": "32432", "capacity": 13, "region_id": "133", "name": "Bladensburg Waterfront Park", "station_id": "2025978688145375308", "lat": 38.934324}, {"lon": -77.056873, "rental_uris": {"android": "https://dc.lft.to/lastmile_qr_scan", "ios": "https://dc.lft.to/lastmile_qr_scan"}, "short_name": "31936", "capacity": 15, "region_id": "41", "name": "Army Navy Dr & Fern St", "station_id": "0a5dbbe0-1325-49af-9fca-f0748ca06dc0", "lat": 38.864838}, {"lon": -77.01191514730453, "rental_uris": {"android": "https://dc.lft.to/lastmile_qr_scan", "ios": "https://dc.lft.to/lastmile_qr_scan"}, "short_name": "31676", "capacity": 15, "region_id": "42", "name": "1st & Q St SW", "station_id": "84a0159b-5f00-417a-8f06-6c7c8437049f", "lat": 38.870823939537914}, {"lon": -77.02601015567778, "rental_uris": {"android": "https://dc.lft.to/lastmile_qr_scan", "ios": "https://dc.lft.to/lastmile_qr_scan"}, "short_name": "31287", "capacity": 23, "region_id": "42", "name": "10th St & L'Enfant Plaza SW", "station_id": "08261d9d-1f3f-11e7-bf6b-3863bb334450", "lat": 38.88432272414662}, {"lon": -77.01366662979126, "rental_uris": {"android": "https://dc.lft.to/lastmile_qr_scan", "ios": "https://dc.lft.to/lastmile_qr_scan"}, "short_name": "31642", "capacity": 23, "region_id": "42", "name": "New Jersey Ave & K St NW", "station_id": "082624fc-1f3f-11e7-bf6b-3863bb334450", "lat": 38.90257109172293}, {"lon": -77.110014, "rental_uris": {"android": "https://dc.lft.to/lastmile_qr_scan", "ios": "https://dc.lft.to/lastmile_qr_scan"}, "short_name": "31943", "capacity": 15, "region_id": "40", "name": "N Howard St & Taney Ave", "station_id": "cdeeb133-ccd7-418f-a8d7-0b5c5380a8ae", "lat": 38.815842}, {"lon": -77.27153766943553, "rental_uris": {"android": "https://dc.lft.to/lastmile_qr_scan", "ios": "https://dc.lft.to/lastmile_qr_scan"}, "short_name": "31389", "capacity": 11, "name": "Route 29 & Circle Woods Dr", "station_id": "1892760823152249488", "lat": 38.86911419290566}, {"lon": -77.03267812728882, "rental_uris": {"android": "https://dc.lft.to/lastmile_qr_scan", "ios": "https://dc.lft.to/lastmile_qr_scan"}, "short_name": "31406", "capacity": 19, "region_id": "42", "name": "14th & Upshur St NW", "station_id": "08254943-1f3f-11e7-bf6b-3863bb334450", "lat": 38.942475355602845}, {"lon": -77.06862643361092, "rental_uris": {"android": "https://dc.lft.to/lastmile_qr_scan", "ios": "https://dc.lft.to/lastmile_qr_scan"}, "short_name": "31422", "capacity": 19, "region_id": "42", "name": "Broad Branch Rd & Northampton St NW", "station_id": "68eaf9f5-7b2d-4f60-9f02-9f5ba1103f80", "lat": 38.96577499342219}, {"lon": -77.106111, "rental_uris": {"android": "https://dc.lft.to/lastmile_qr_scan", "ios": "https://dc.lft.to/lastmile_qr_scan"}, "short_name": "31941", "capacity": 11, "region_id": "40", "name": "N Hampton Dr & Ford Ave", "station_id": "e456b38d-7f5e-4d06-b2bc-022b42097a06", "lat": 38.837306}, {"lon": -77.012108, "rental_uris": {"android": "https://dc.lft.to/lastmile_qr_scan", "ios": "https://dc.lft.to/lastmile_qr_scan"}, "short_name": "31638", "capacity": 15, "region_id": "42", "name": "1st & H St NW", "station_id": "0825e1e5-1f3f-11e7-bf6b-3863bb334450", "lat": 38.900358}, {"lon": -77.00223, "rental_uris": {"android": "https://dc.lft.to/lastmile_qr_scan", "ios": "https://dc.lft.to/lastmile_qr_scan"}, "short_name": "31818", "capacity": 15, "region_id": "42", "name": "Livingston Rd & 3rd St SE", "station_id": "d72b1790-0fea-4af8-9d2a-fd4d4db24d1a", "lat": 38.82373}, {"lon": -77.060899, "rental_uris": {"android": "https://dc.lft.to/lastmile_qr_scan", "ios": "https://dc.lft.to/lastmile_qr_scan"}, "short_name": "31956", "capacity": 11, "region_id": "40", "name": "Reed & Edison", "station_id": "febec658-2bcd-473e-8ba8-f84f016da7cd", "lat": 38.83728}, {"lon": -77.0494365, "rental_uris": {"android": "https://dc.lft.to/lastmile_qr_scan", "ios": "https://dc.lft.to/lastmile_qr_scan"}, "short_name": "31258", "capacity": 25, "region_id": "42", "name": "Lincoln Memorial", "station_id": "08254284-1f3f-11e7-bf6b-3863bb334450", "lat": 38.888255}, {"lon": -77.341823, "rental_uris": {"android": "https://dc.lft.to/lastmile_qr_scan", "ios": "https://dc.lft.to/lastmile_qr_scan"}, "short_name": "32256", "capacity": 12, "region_id": "104", "name": "North Village and Park Garden", "station_id": "c0ec45a3-ec59-4c82-9671-13d9c122be30", "lat": 38.983199}, {"lon": -77.145213, "rental_uris": {"android": "https://dc.lft.to/lastmile_qr_scan", "ios": "https://dc.lft.to/lastmile_qr_scan"}, "short_name": "32009", "capacity": 9, "region_id": "43", "name": "Frederick Ave & Horners Ln", "station_id": "08258475-1f3f-11e7-bf6b-3863bb334450", "lat": 39.094772}, {"lon": -77.02324, "rental_uris": {"android": "https://dc.lft.to/lastmile_qr_scan", "ios": "https://dc.lft.to/lastmile_qr_scan"}, "short_name": "31270", "capacity": 15, "region_id": "42", "name": "8th & D St NW", "station_id": "08256ac9-1f3f-11e7-bf6b-3863bb334450", "lat": 38.894851}, {"lon": -77.361466, "rental_uris": {"android": "https://dc.lft.to/lastmile_qr_scan", "ios": "https://dc.lft.to/lastmile_qr_scan"}, "short_name": "32258", "capacity": 19, "region_id": "104", "name": "Reston Town Center Metro South", "station_id": "5dfab137-f65a-41c0-99ef-d58f29a735b2", "lat": 38.9523}, {"lon": -77.001949, "rental_uris": {"android": "https://dc.lft.to/lastmile_qr_scan", "ios": "https://dc.lft.to/lastmile_qr_scan"}, "short_name": "31616", "capacity": 19, "region_id": "42", "name": "3rd & H St NE", "station_id": "0824bce1-1f3f-11e7-bf6b-3863bb334450", "lat": 38.900412}, {"lon": -77.00069814920425, "rental_uris": {"android": "https://dc.lft.to/lastmile_qr_scan", "ios": "https://dc.lft.to/lastmile_qr_scan"}, "short_name": "31532", "capacity": 19, "region_id": "42", "name": "4th & Florida Ave NE", "station_id": "21cdfe0d-71ad-4302-a003-3cfc0d355af9", "lat": 38.90731645057457}, {"lon": -76.946361, "rental_uris": {"android": "https://dc.lft.to/lastmile_qr_scan", "ios": "https://dc.lft.to/lastmile_qr_scan"}, "short_name": "32408", "capacity": 15, "region_id": "133", "name": "Oglethorpe St & 42nd Ave", "station_id": "42ad2bc8-22b5-40f2-8a56-e562e4ecde07", "lat": 38.959361}, {"lon": -77.027855, "rental_uris": {"android": "https://dc.lft.to/lastmile_qr_scan", "ios": "https://dc.lft.to/lastmile_qr_scan"}, "short_name": "31411", "capacity": 19, "region_id": "42", "name": "Georgia & Missouri Ave NW", "station_id": "082605b0-1f3f-11e7-bf6b-3863bb334450", "lat": 38.961339}, {"lon": -76.878005, "rental_uris": {"android": "https://dc.lft.to/lastmile_qr_scan", "ios": "https://dc.lft.to/lastmile_qr_scan"}, "short_name": "32424", "capacity": 15, "region_id": "133", "name": "Roosevelt Center & Crescent Rd", "station_id": "6922a398-ec20-493d-a832-5e337cf335f5", "lat": 39.00031}, {"lon": -77.059936, "rental_uris": {"android": "https://dc.lft.to/lastmile_qr_scan", "ios": "https://dc.lft.to/lastmile_qr_scan"}, "short_name": "31005", "capacity": 19, "region_id": "41", "name": "Pentagon City Metro / 12th St & S Hayes St", "station_id": "08246df5-1f3f-11e7-bf6b-3863bb334450", "lat": 38.862303}, {"lon": -76.950009, "rental_uris": {"android": "https://dc.lft.to/lastmile_qr_scan", "ios": "https://dc.lft.to/lastmile_qr_scan"}, "short_name": "31715", "capacity": 15, "region_id": "42", "name": "37th & Ely Pl SE", "station_id": "ee2cb739-9118-4069-b4f7-435ef53db537", "lat": 38.883132}, {"lon": -77.05102041363716, "rental_uris": {"android": "https://dc.lft.to/lastmile_qr_scan", "ios": "https://dc.lft.to/lastmile_qr_scan"}, "short_name": "32062", "capacity": 19, "region_id": "44", "name": "Wheaton Metro / Georgia Ave & Reedie Dr", "station_id": "08265124-1f3f-11e7-bf6b-3863bb334450", "lat": 39.038423828518326}, {"lon": -77.08865851163864, "rental_uris": {"android": "https://dc.lft.to/lastmile_qr_scan", "ios": "https://dc.lft.to/lastmile_qr_scan"}, "short_name": "31076", "capacity": 15, "region_id": "41", "name": "S Randolph St & Campbell Ave", "station_id": "0825e4d5-1f3f-11e7-bf6b-3863bb334450", "lat": 38.84065400672152}, {"lon": -77.166093, "rental_uris": {"android": "https://dc.lft.to/lastmile_qr_scan", "ios": "https://dc.lft.to/lastmile_qr_scan"}, "short_name": "32045", "capacity": 19, "region_id": "43", "name": "Shady Grove Metro West", "station_id": "0825e56c-1f3f-11e7-bf6b-3863bb334450", "lat": 39.119765}, {"lon": -76.99840486049652, "rental_uris": {"android": "https://dc.lft.to/lastmile_qr_scan", "ios": "https://dc.lft.to/lastmile_qr_scan"}, "short_name": "31645", "capacity": 19, "region_id": "42", "name": "6th & K St NE", "station_id": "082644bc-1f3f-11e7-bf6b-3863bb334450", "lat": 38.90293157359119}, {"lon": -77.10783, "rental_uris": {"android": "https://dc.lft.to/lastmile_qr_scan", "ios": "https://dc.lft.to/lastmile_qr_scan"}, "short_name": "31025", "capacity": 12, "region_id": "41", "name": "Central Library / Quincy St & 10th St N", "station_id": "0825213e-1f3f-11e7-bf6b-3863bb334450", "lat": 38.88397}, {"lon": -77.171891, "rental_uris": {"android": "https://dc.lft.to/lastmile_qr_scan", "ios": "https://dc.lft.to/lastmile_qr_scan"}, "short_name": "32604", "capacity": 12, "region_id": "152", "name": "E Fairfax St & S Washington St", "station_id": "6e652351-dad9-45e4-a0a7-dda0417973f4", "lat": 38.880612}, {"lon": -77.349764, "rental_uris": {"android": "https://dc.lft.to/lastmile_qr_scan", "ios": "https://dc.lft.to/lastmile_qr_scan"}, "short_name": "32259", "capacity": 12, "region_id": "104", "name": "N Shore Dr & Wainwright Dr", "station_id": "c98241f4-a3c0-4eb8-86bd-dd057baa0192", "lat": 38.963782}, {"lon": -77.04564, "rental_uris": {"android": "https://dc.lft.to/lastmile_qr_scan", "ios": "https://dc.lft.to/lastmile_qr_scan"}, "short_name": "31299", "capacity": 19, "region_id": "42", "name": "Connecticut Ave & R St NW", "station_id": "a2507ccc-aca1-48b2-a6a3-a3144ad92d21", "lat": 38.912644}, {"lon": -77.348487, "rental_uris": {"android": "https://dc.lft.to/lastmile_qr_scan", "ios": "https://dc.lft.to/lastmile_qr_scan"}, "short_name": "32244", "capacity": 12, "region_id": "104", "name": "Vantage Hill Rd & Wainwright Dr", "station_id": "8d68e4db-0bc9-440a-9b27-5d34ed1b93c9", "lat": 38.9667}, {"lon": -77.0446327328682, "rental_uris": {"android": "https://dc.lft.to/lastmile_qr_scan", "ios": "https://dc.lft.to/lastmile_qr_scan"}, "short_name": "31043", "capacity": 15, "region_id": "40", "name": "St Asaph & Pendleton St", "station_id": "08253a4b-1f3f-11e7-bf6b-3863bb334450", "lat": 38.81074147938705}, {"lon": -77.076389, "rental_uris": {"android": "https://dc.lft.to/lastmile_qr_scan", "ios": "https://dc.lft.to/lastmile_qr_scan"}, "short_name": "31016", "capacity": 15, "region_id": "41", "name": "Clarendon Blvd & Pierce St", "station_id": "0824eba7-1f3f-11e7-bf6b-3863bb334450", "lat": 38.893438}, {"lon": -77.052808, "rental_uris": {"android": "https://dc.lft.to/lastmile_qr_scan", "ios": "https://dc.lft.to/lastmile_qr_scan"}, "short_name": "31047", "capacity": 29, "region_id": "40", "name": "Braddock Rd Metro North", "station_id": "08253c6b-1f3f-11e7-bf6b-3863bb334450", "lat": 38.814577}, {"lon": -76.954171, "rental_uris": {"android": "https://dc.lft.to/lastmile_qr_scan", "ios": "https://dc.lft.to/lastmile_qr_scan"}, "short_name": "32422", "capacity": 17, "region_id": "133", "name": "The Mall at Prince Georges", "station_id": "d34d2639-ee43-4892-818f-f01116813744", "lat": 38.968842}, {"lon": -77.20812678337097, "rental_uris": {"android": "https://dc.lft.to/lastmile_qr_scan", "ios": "https://dc.lft.to/lastmile_qr_scan"}, "short_name": "32230", "capacity": 19, "region_id": "104", "name": "McLean Metro", "station_id": "6ffb5d30-d3f4-462b-8182-c552bebc9310", "lat": 38.92400207520182}, {"lon": -77.013917, "rental_uris": {"android": "https://dc.lft.to/lastmile_qr_scan", "ios": "https://dc.lft.to/lastmile_qr_scan"}, "short_name": "31271", "capacity": 27, "region_id": "42", "name": "Constitution Ave & 2nd St NW/DOL", "station_id": "08256d91-1f3f-11e7-bf6b-3863bb334450", "lat": 38.892275}, {"lon": -77.09713, "rental_uris": {"android": "https://dc.lft.to/lastmile_qr_scan", "ios": "https://dc.lft.to/lastmile_qr_scan"}, "short_name": "31094", "capacity": 15, "region_id": "41", "name": "Langston Blvd & N Kirkwood Rd", "station_id": "0825ff8d-1f3f-11e7-bf6b-3863bb334450", "lat": 38.895377}, {"lon": -76.941877, "rental_uris": {"android": "https://dc.lft.to/lastmile_qr_scan", "ios": "https://dc.lft.to/lastmile_qr_scan"}, "short_name": "31704", "capacity": 11, "region_id": "42", "name": "Nannie Helen Burroughs & Minnesota Ave NE", "station_id": "082480f1-1f3f-11e7-bf6b-3863bb334450", "lat": 38.901385}, {"lon": -77.070862, "rental_uris": {"android": "https://dc.lft.to/lastmile_qr_scan", "ios": "https://dc.lft.to/lastmile_qr_scan"}, "short_name": "31917", "capacity": 15, "region_id": "41", "name": "N Lynn St & Fairfax Dr", "station_id": "0826402c-1f3f-11e7-bf6b-3863bb334450", "lat": 38.89386}, {"lon": -77.209421, "rental_uris": {"android": "https://dc.lft.to/lastmile_qr_scan", "ios": "https://dc.lft.to/lastmile_qr_scan"}, "short_name": "32266", "capacity": 12, "region_id": "104", "name": "Emma Lee St & Morris St", "station_id": "3d8b6392-9572-4c65-b71c-fd8f03af9ab2", "lat": 38.877818}, {"lon": -77.23076596856116, "rental_uris": {"android": "https://dc.lft.to/lastmile_qr_scan", "ios": "https://dc.lft.to/lastmile_qr_scan"}, "short_name": "32234", "capacity": 11, "region_id": "104", "name": "Merrilee Dr & Lauren Elizabeth Lane", "station_id": "a77b8993-6d68-425e-a37a-0e613a7cb17a", "lat": 38.87857249314831}, {"lon": -76.925315, "rental_uris": {"android": "https://dc.lft.to/lastmile_qr_scan", "ios": "https://dc.lft.to/lastmile_qr_scan"}, "short_name": "31671", "capacity": 19, "region_id": "42", "name": "53rd & D St SE/C.W. Harris Elementary", "station_id": "12b1c990-90e7-4fef-a5b9-c78d4c81af96", "lat": 38.883318}, {"lon": -77.149162, "rental_uris": {"android": "https://dc.lft.to/lastmile_qr_scan", "ios": "https://dc.lft.to/lastmile_qr_scan"}, "short_name": "32017", "capacity": 15, "region_id": "43", "name": "Monroe St & Monroe Pl", "station_id": "082595a1-1f3f-11e7-bf6b-3863bb334450", "lat": 39.083673}, {"lon": -77.003135, "rental_uris": {"android": "https://dc.lft.to/lastmile_qr_scan", "ios": "https://dc.lft.to/lastmile_qr_scan"}, "short_name": "31641", "capacity": 23, "region_id": "42", "name": "2nd St & Massachusetts Ave NE", "station_id": "08261e7a-1f3f-11e7-bf6b-3863bb334450", "lat": 38.894972}, {"lon": -76.982464, "rental_uris": {"android": "https://dc.lft.to/lastmile_qr_scan", "ios": "https://dc.lft.to/lastmile_qr_scan"}, "short_name": "31725", "capacity": 19, "name": "16th St & North Carolina Ave NE", "station_id": "1932168474073292810", "lat": 38.893062}, {"lon": -77.168902, "rental_uris": {"android": "https://dc.lft.to/lastmile_qr_scan", "ios": "https://dc.lft.to/lastmile_qr_scan"}, "short_name": "32289", "capacity": 19, "name": "Franconia-Springfield Metro North", "station_id": "1917259666206632502", "lat": 38.766946}, {"lon": -77.1299434, "rental_uris": {"android": "https://dc.lft.to/lastmile_qr_scan", "ios": "https://dc.lft.to/lastmile_qr_scan"}, "short_name": "31932", "capacity": 19, "region_id": "40", "name": "Van Dorn Metro", "station_id": "dfa896d9-9209-413d-b494-e255ef513d2c", "lat": 38.8000766}, {"lon": -77.048043, "rental_uris": {"android": "https://dc.lft.to/lastmile_qr_scan", "ios": "https://dc.lft.to/lastmile_qr_scan"}, "short_name": "31958", "capacity": 12, "region_id": "40", "name": "S Washington St & Wilkes St", "station_id": "472dee60-f045-4f2e-9807-193e3ae9b661", "lat": 38.800703}, {"lon": -77.04368, "rental_uris": {"android": "https://dc.lft.to/lastmile_qr_scan", "ios": "https://dc.lft.to/lastmile_qr_scan"}, "short_name": "31113", "capacity": 19, "region_id": "42", "name": "Columbia Rd & Belmont St NW", "station_id": "0824f461-1f3f-11e7-bf6b-3863bb334450", "lat": 38.920669}, {"lon": -77.338686, "rental_uris": {"android": "https://dc.lft.to/lastmile_qr_scan", "ios": "https://dc.lft.to/lastmile_qr_scan"}, "short_name": "32209", "capacity": 11, "region_id": "104", "name": "North Shore & Cameron Crescent Dr/Crescent Apartments", "station_id": "0826380c-1f3f-11e7-bf6b-3863bb334450", "lat": 38.970046}, {"lon": -77.272999, "rental_uris": {"android": "https://dc.lft.to/lastmile_qr_scan", "ios": "https://dc.lft.to/lastmile_qr_scan"}, "short_name": "32261", "capacity": 11, "region_id": "104", "name": "Vaden Dr & Royal Victoria Dr/Jim Scott Cmty Ctr", "station_id": "f08db1df-054a-46c8-a3e1-b349f2a26d5e", "lat": 38.873261}, {"lon": -77.072315, "rental_uris": {"android": "https://dc.lft.to/lastmile_qr_scan", "ios": "https://dc.lft.to/lastmile_qr_scan"}, "short_name": "31066", "capacity": 11, "region_id": "41", "name": "Columbia Pike & S Orme St", "station_id": "082569e6-1f3f-11e7-bf6b-3863bb334450", "lat": 38.867262}, {"lon": -77.00493, "rental_uris": {"android": "https://dc.lft.to/lastmile_qr_scan", "ios": "https://dc.lft.to/lastmile_qr_scan"}, "short_name": "31623", "capacity": 55, "region_id": "42", "name": "Columbus Circle / Union Station", "station_id": "0824d0c6-1f3f-11e7-bf6b-3863bb334450", "lat": 38.89696}, {"lon": -77.331794, "rental_uris": {"android": "https://dc.lft.to/lastmile_qr_scan", "ios": "https://dc.lft.to/lastmile_qr_scan"}, "short_name": "31383", "capacity": 11, "name": "N Shore Dr & Bandit Loop", "station_id": "1900964406001033780", "lat": 38.95937}, {"lon": -77.345874, "rental_uris": {"android": "https://dc.lft.to/lastmile_qr_scan", "ios": "https://dc.lft.to/lastmile_qr_scan"}, "short_name": "32253", "capacity": 12, "region_id": "104", "name": "Soapstone Dr Convenience Center", "station_id": "85c2fb24-d241-4550-8968-2cdf85462af7", "lat": 38.93051}, {"lon": -76.9941, "rental_uris": {"android": "https://dc.lft.to/lastmile_qr_scan", "ios": "https://dc.lft.to/lastmile_qr_scan"}, "short_name": "31508", "capacity": 19, "region_id": "42", "name": "Gallaudet / 8th St & Florida Ave NE", "station_id": "08252b28-1f3f-11e7-bf6b-3863bb334450", "lat": 38.90509}, {"lon": -77.08059, "rental_uris": {"android": "https://dc.lft.to/lastmile_qr_scan", "ios": "https://dc.lft.to/lastmile_qr_scan"}, "short_name": "31316", "capacity": 19, "region_id": "42", "name": "Yuma St & Tenley Circle NW", "station_id": "0826139b-1f3f-11e7-bf6b-3863bb334450", "lat": 38.946182}, {"lon": -76.868767, "rental_uris": {"android": "https://dc.lft.to/lastmile_qr_scan", "ios": "https://dc.lft.to/lastmile_qr_scan"}, "short_name": "32428", "capacity": 15, "region_id": "133", "name": "Walker Mill Road/ Walker Mill Regional Park ", "station_id": "1999699654561182176", "lat": 38.875772}, {"lon": -77.359717, "rental_uris": {"android": "https://dc.lft.to/lastmile_qr_scan", "ios": "https://dc.lft.to/lastmile_qr_scan"}, "short_name": "32243", "capacity": 23, "region_id": "104", "name": "Reston Town Center Metro North", "station_id": "e823318f-8406-4230-8072-1667f5de78d4", "lat": 38.953691}, {"lon": -77.15642720460892, "rental_uris": {"android": "https://dc.lft.to/lastmile_qr_scan", "ios": "https://dc.lft.to/lastmile_qr_scan"}, "short_name": "31904", "capacity": 19, "region_id": "41", "name": "East Falls Church Metro / Sycamore St & 19th St N", "station_id": "08261f4b-1f3f-11e7-bf6b-3863bb334450", "lat": 38.88532071975074}, {"lon": -77.356324, "rental_uris": {"android": "https://dc.lft.to/lastmile_qr_scan", "ios": "https://dc.lft.to/lastmile_qr_scan"}, "short_name": "32212", "capacity": 11, "region_id": "104", "name": "New Dominion Pkwy & Fountain Dr", "station_id": "08263959-1f3f-11e7-bf6b-3863bb334450", "lat": 38.960574}, {"lon": -77.00077, "rental_uris": {"android": "https://dc.lft.to/lastmile_qr_scan", "ios": "https://dc.lft.to/lastmile_qr_scan"}, "short_name": "32082", "capacity": 15, "region_id": "44", "name": "Garland Ave & Walden Rd", "station_id": "a3761e59-db36-4b61-8bb3-8d523af69b96", "lat": 39.00048}, {"lon": -77.0352, "rental_uris": {"android": "https://dc.lft.to/lastmile_qr_scan", "ios": "https://dc.lft.to/lastmile_qr_scan"}, "short_name": "31117", "capacity": 15, "region_id": "42", "name": "15th & Euclid St NW", "station_id": "0825525a-1f3f-11e7-bf6b-3863bb334450", "lat": 38.92333}, {"lon": -77.329282, "rental_uris": {"android": "https://dc.lft.to/lastmile_qr_scan", "ios": "https://dc.lft.to/lastmile_qr_scan"}, "short_name": "32239", "capacity": 12, "region_id": "104", "name": "Becontree Ln & Goldenrain Ct", "station_id": "e976c0ab-bc21-42b3-a2c2-b90def6f54f4", "lat": 38.966848}, {"lon": -77.013769, "rental_uris": {"android": "https://dc.lft.to/lastmile_qr_scan", "ios": "https://dc.lft.to/lastmile_qr_scan"}, "short_name": "31272", "capacity": 31, "region_id": "42", "name": "Washington & Independence Ave SW/HHS", "station_id": "08256e11-1f3f-11e7-bf6b-3863bb334450", "lat": 38.886978}, {"lon": -77.079119, "rental_uris": {"android": "https://dc.lft.to/lastmile_qr_scan", "ios": "https://dc.lft.to/lastmile_qr_scan"}, "short_name": "31392", "capacity": 19, "name": "39th St & Tunlaw Rd NW", "station_id": "1879766346478500482", "lat": 38.9257}, {"lon": -77.089006, "rental_uris": {"android": "https://dc.lft.to/lastmile_qr_scan", "ios": "https://dc.lft.to/lastmile_qr_scan"}, "short_name": "31030", "capacity": 15, "region_id": "41", "name": "Langston Blvd & N Adams St", "station_id": "08252530-1f3f-11e7-bf6b-3863bb334450", "lat": 38.89593}, {"lon": -77.003666, "rental_uris": {"android": "https://dc.lft.to/lastmile_qr_scan", "ios": "https://dc.lft.to/lastmile_qr_scan"}, "short_name": "31639", "capacity": 23, "region_id": "42", "name": "2nd & G St NE", "station_id": "082604dd-1f3f-11e7-bf6b-3863bb334450", "lat": 38.89967}, {"lon": -76.983575, "rental_uris": {"android": "https://dc.lft.to/lastmile_qr_scan", "ios": "https://dc.lft.to/lastmile_qr_scan"}, "short_name": "31632", "capacity": 19, "region_id": "42", "name": "15th & F St NE", "station_id": "0825610d-1f3f-11e7-bf6b-3863bb334450", "lat": 38.897195}, {"lon": -77.028139, "rental_uris": {"android": "https://dc.lft.to/lastmile_qr_scan", "ios": "https://dc.lft.to/lastmile_qr_scan"}, "short_name": "31268", "capacity": 31, "region_id": "42", "name": "12th & U St NW", "station_id": "08256670-1f3f-11e7-bf6b-3863bb334450", "lat": 38.916787}, {"lon": -77.103148, "rental_uris": {"android": "https://dc.lft.to/lastmile_qr_scan", "ios": "https://dc.lft.to/lastmile_qr_scan"}, "short_name": "31024", "capacity": 19, "region_id": "41", "name": "Virginia Square Metro / Monroe St & 9th St N", "station_id": "082520aa-1f3f-11e7-bf6b-3863bb334450", "lat": 38.882788}, {"lon": -77.023082, "rental_uris": {"android": "https://dc.lft.to/lastmile_qr_scan", "ios": "https://dc.lft.to/lastmile_qr_scan"}, "short_name": "32001", "capacity": 15, "region_id": "44", "name": "Fenton St & New York Ave ", "station_id": "08257325-1f3f-11e7-bf6b-3863bb334450", "lat": 38.985404}, {"lon": -77.052925, "rental_uris": {"android": "https://dc.lft.to/lastmile_qr_scan", "ios": "https://dc.lft.to/lastmile_qr_scan"}, "short_name": "31045", "capacity": 15, "region_id": "40", "name": "Commerce St & Fayette St", "station_id": "08253b95-1f3f-11e7-bf6b-3863bb334450", "lat": 38.80563}, {"lon": -76.986813, "rental_uris": {"android": "https://dc.lft.to/lastmile_qr_scan", "ios": "https://dc.lft.to/lastmile_qr_scan"}, "short_name": "31524", "capacity": 19, "region_id": "42", "name": "Montello Ave & Holbrook Terr NE", "station_id": "a07bd5e0-5136-4285-ae23-54a74124957e", "lat": 38.907444}, {"lon": -77.023854, "rental_uris": {"android": "https://dc.lft.to/lastmile_qr_scan", "ios": "https://dc.lft.to/lastmile_qr_scan"}, "short_name": "32024", "capacity": 11, "region_id": "44", "name": "Fenton St & Gist Ave", "station_id": "0825ac97-1f3f-11e7-bf6b-3863bb334450", "lat": 38.989724}, {"lon": -77.240654, "rental_uris": {"android": "https://dc.lft.to/lastmile_qr_scan", "ios": "https://dc.lft.to/lastmile_qr_scan"}, "short_name": "32200", "capacity": 15, "region_id": "104", "name": "Spring Hill Metro", "station_id": "0826345e-1f3f-11e7-bf6b-3863bb334450", "lat": 38.929261}, {"lon": -76.99489653110504, "rental_uris": {"android": "https://dc.lft.to/lastmile_qr_scan", "ios": "https://dc.lft.to/lastmile_qr_scan"}, "short_name": "31661", "capacity": 19, "region_id": "42", "name": "8th & H St NE", "station_id": "fbbeab20-556d-4275-98a9-f84d316c157f", "lat": 38.899941626884754}, {"lon": -77.072143, "rental_uris": {"android": "https://dc.lft.to/lastmile_qr_scan", "ios": "https://dc.lft.to/lastmile_qr_scan"}, "short_name": "31014", "capacity": 15, "region_id": "41", "name": "19th St N & Ft Myer Dr", "station_id": "0824ea2c-1f3f-11e7-bf6b-3863bb334450", "lat": 38.897218}, {"lon": -77.089555, "rental_uris": {"android": "https://dc.lft.to/lastmile_qr_scan", "ios": "https://dc.lft.to/lastmile_qr_scan"}, "short_name": "31060", "capacity": 15, "region_id": "41", "name": "S Arlington Mill Dr & Campbell Ave", "station_id": "08254dee-1f3f-11e7-bf6b-3863bb334450", "lat": 38.84232}, {"lon": -76.9607, "rental_uris": {"android": "https://dc.lft.to/lastmile_qr_scan", "ios": "https://dc.lft.to/lastmile_qr_scan"}, "short_name": "31702", "capacity": 11, "region_id": "42", "name": "Randle Circle & Minnesota Ave SE", "station_id": "08247fe1-1f3f-11e7-bf6b-3863bb334450", "lat": 38.878}, {"lon": -77.0078, "rental_uris": {"android": "https://dc.lft.to/lastmile_qr_scan", "ios": "https://dc.lft.to/lastmile_qr_scan"}, "short_name": "31523", "capacity": 19, "region_id": "42", "name": "Lincoln Rd & Seaton Pl NE/Harry Thomas Rec Center", "station_id": "6d5ad96d-a704-4fa6-8b65-3ac643c5aa93", "lat": 38.915}, {"lon": -77.195847, "rental_uris": {"android": "https://dc.lft.to/lastmile_qr_scan", "ios": "https://dc.lft.to/lastmile_qr_scan"}, "short_name": "32267", "capacity": 12, "region_id": "104", "name": "Route 29 & Bisvey Dr", "station_id": "f0101beb-a103-46e4-93f5-c7880b85411b", "lat": 38.876912}, {"lon": -77.233583, "rental_uris": {"android": "https://dc.lft.to/lastmile_qr_scan", "ios": "https://dc.lft.to/lastmile_qr_scan"}, "short_name": "31396", "capacity": 11, "name": "Dorr Ave & Prosperity Ave", "station_id": "1890204129337198944", "lat": 38.879256}, {"lon": -77.07432264076488, "rental_uris": {"android": "https://dc.lft.to/lastmile_qr_scan", "ios": "https://dc.lft.to/lastmile_qr_scan"}, "short_name": "31325", "capacity": 19, "region_id": "42", "name": "Reservoir Rd & 38th St NW", "station_id": "7a19d0e7-2b3c-4805-b843-1aec84a05bfe", "lat": 38.91261359469192}, {"lon": -77.005965, "rental_uris": {"android": "https://dc.lft.to/lastmile_qr_scan", "ios": "https://dc.lft.to/lastmile_qr_scan"}, "short_name": "31643", "capacity": 19, "region_id": "42", "name": "1st & D St SE", "station_id": "08263aa1-1f3f-11e7-bf6b-3863bb334450", "lat": 38.884916}, {"lon": -77.038542, "rental_uris": {"android": "https://dc.lft.to/lastmile_qr_scan", "ios": "https://dc.lft.to/lastmile_qr_scan"}, "short_name": "31267", "capacity": 19, "region_id": "42", "name": "17th St & Massachusetts Ave NW", "station_id": "08255063-1f3f-11e7-bf6b-3863bb334450", "lat": 38.908568}, {"lon": -76.995876, "rental_uris": {"android": "https://dc.lft.to/lastmile_qr_scan", "ios": "https://dc.lft.to/lastmile_qr_scan"}, "short_name": "31516", "capacity": 19, "region_id": "42", "name": "Rhode Island Ave Metro", "station_id": "0825e3b0-1f3f-11e7-bf6b-3863bb334450", "lat": 38.920682}, {"lon": -77.094589, "rental_uris": {"android": "https://dc.lft.to/lastmile_qr_scan", "ios": "https://dc.lft.to/lastmile_qr_scan"}, "short_name": "32029", "capacity": 11, "region_id": "44", "name": "Offutt Ln & Chevy Chase Dr", "station_id": "0825b2e7-1f3f-11e7-bf6b-3863bb334450", "lat": 38.977093}, {"lon": -77.001828, "rental_uris": {"android": "https://dc.lft.to/lastmile_qr_scan", "ios": "https://dc.lft.to/lastmile_qr_scan"}, "short_name": "31625", "capacity": 19, "region_id": "42", "name": "3rd & G St SE", "station_id": "08251448-1f3f-11e7-bf6b-3863bb334450", "lat": 38.881185}, {"lon": -77.022216, "rental_uris": {"android": "https://dc.lft.to/lastmile_qr_scan", "ios": "https://dc.lft.to/lastmile_qr_scan"}, "short_name": "31232", "capacity": 35, "region_id": "42", "name": "7th & F St NW / National Portrait Gallery", "station_id": "0824c772-1f3f-11e7-bf6b-3863bb334450", "lat": 38.897324}, {"lon": -76.843263, "rental_uris": {"android": "https://dc.lft.to/lastmile_qr_scan", "ios": "https://dc.lft.to/lastmile_qr_scan"}, "short_name": "32400", "capacity": 15, "region_id": "133", "name": "1301 McCormick Dr / Wayne K. Curry Admin Bldg", "station_id": "987decdd-577d-4614-a6eb-307944a634b4", "lat": 38.908391}, {"lon": -77.091991, "rental_uris": {"android": "https://dc.lft.to/lastmile_qr_scan", "ios": "https://dc.lft.to/lastmile_qr_scan"}, "short_name": "32021", "capacity": 15, "region_id": "44", "name": "47th & Elm St", "station_id": "08259c89-1f3f-11e7-bf6b-3863bb334450", "lat": 38.982456}, {"lon": -77.047637, "rental_uris": {"android": "https://dc.lft.to/lastmile_qr_scan", "ios": "https://dc.lft.to/lastmile_qr_scan"}, "short_name": "31106", "capacity": 23, "region_id": "42", "name": "Calvert & Biltmore St NW", "station_id": "0824773f-1f3f-11e7-bf6b-3863bb334450", "lat": 38.923203}, {"lon": -77.0237946510315, "rental_uris": {"android": "https://dc.lft.to/lastmile_qr_scan", "ios": "https://dc.lft.to/lastmile_qr_scan"}, "short_name": "31115", "capacity": 27, "region_id": "42", "name": "Columbia Rd & Georgia Ave NW", "station_id": "0825164b-1f3f-11e7-bf6b-3863bb334450", "lat": 38.92812111132096}, {"lon": -77.353552, "rental_uris": {"android": "https://dc.lft.to/lastmile_qr_scan", "ios": "https://dc.lft.to/lastmile_qr_scan"}, "short_name": "32246", "capacity": 12, "region_id": "104", "name": "Golf Course Sq and Golf Course Dr", "station_id": "13c42471-96ab-441d-9a4c-bc57f7af6f9b", "lat": 38.944013}, {"lon": -77.089133, "rental_uris": {"android": "https://dc.lft.to/lastmile_qr_scan", "ios": "https://dc.lft.to/lastmile_qr_scan"}, "short_name": "31096", "capacity": 12, "region_id": "41", "name": "Columbia Pike & S Highland St", "station_id": "08260472-1f3f-11e7-bf6b-3863bb334450", "lat": 38.862398}, {"lon": -77.0934784, "rental_uris": {"android": "https://dc.lft.to/lastmile_qr_scan", "ios": "https://dc.lft.to/lastmile_qr_scan"}, "short_name": "31072", "capacity": 11, "region_id": "41", "name": "31st St & S Woodrow St", "station_id": "0825be94-1f3f-11e7-bf6b-3863bb334450", "lat": 38.8378458}, {"lon": -77.094537, "rental_uris": {"android": "https://dc.lft.to/lastmile_qr_scan", "ios": "https://dc.lft.to/lastmile_qr_scan"}, "short_name": "32048", "capacity": 12, "region_id": "44", "name": "Bethesda Metro / Wisconsin Ave & Old Georgetown Rd", "station_id": "0825f2b1-1f3f-11e7-bf6b-3863bb334450", "lat": 38.984691}, {"lon": -77.07513481378555, "rental_uris": {"android": "https://dc.lft.to/lastmile_qr_scan", "ios": "https://dc.lft.to/lastmile_qr_scan"}, "short_name": "31315", "capacity": 19, "region_id": "42", "name": "Connecticut Ave & McKinley St NW", "station_id": "0825fbd3-1f3f-11e7-bf6b-3863bb334450", "lat": 38.96454350924588}, {"lon": -77.012457, "rental_uris": {"android": "https://dc.lft.to/lastmile_qr_scan", "ios": "https://dc.lft.to/lastmile_qr_scan"}, "short_name": "31507", "capacity": 14, "region_id": "42", "name": "1st & Washington Hospital Center NW", "station_id": "0825201c-1f3f-11e7-bf6b-3863bb334450", "lat": 38.928743}, {"lon": -77.303349, "rental_uris": {"android": "https://dc.lft.to/lastmile_qr_scan", "ios": "https://dc.lft.to/lastmile_qr_scan"}, "short_name": "32278", "capacity": 12, "name": "Blenheim Blvd & North St", "station_id": "1874573898176678104", "lat": 38.846972}, {"lon": -76.96012, "rental_uris": {"android": "https://dc.lft.to/lastmile_qr_scan", "ios": "https://dc.lft.to/lastmile_qr_scan"}, "short_name": "31708", "capacity": 15, "region_id": "42", "name": "Anacostia Ave & Benning Rd NE / River Terrace ", "station_id": "082518eb-1f3f-11e7-bf6b-3863bb334450", "lat": 38.896544}, {"lon": -77.036278, "rental_uris": {"android": "https://dc.lft.to/lastmile_qr_scan", "ios": "https://dc.lft.to/lastmile_qr_scan"}, "short_name": "31282", "capacity": 19, "region_id": "42", "name": "16th & R St NW", "station_id": "0826183f-1f3f-11e7-bf6b-3863bb334450", "lat": 38.912652}, {"lon": -77.0207878947258, "rental_uris": {"android": "https://dc.lft.to/lastmile_qr_scan", "ios": "https://dc.lft.to/lastmile_qr_scan"}, "short_name": "31673", "capacity": 19, "region_id": "42", "name": "Waterfront Park", "station_id": "94b1507c-7f76-483c-b06a-a4131e0b5970", "lat": 38.874820772513424}, {"lon": -76.99591577053069, "rental_uris": {"android": "https://dc.lft.to/lastmile_qr_scan", "ios": "https://dc.lft.to/lastmile_qr_scan"}, "short_name": "31612", "capacity": 23, "region_id": "42", "name": "D St & Maryland Ave NE", "station_id": "0824a703-1f3f-11e7-bf6b-3863bb334450", "lat": 38.89484064247075}, {"lon": -77.0251, "rental_uris": {"android": "https://dc.lft.to/lastmile_qr_scan", "ios": "https://dc.lft.to/lastmile_qr_scan"}, "short_name": "31404", "capacity": 15, "region_id": "42", "name": "9th & Upshur St NW", "station_id": "08251532-1f3f-11e7-bf6b-3863bb334450", "lat": 38.9418}, {"lon": -77.146866, "rental_uris": {"android": "https://dc.lft.to/lastmile_qr_scan", "ios": "https://dc.lft.to/lastmile_qr_scan"}, "short_name": "32047", "capacity": 19, "region_id": "43", "name": "Rockville Metro West", "station_id": "0825f1f7-1f3f-11e7-bf6b-3863bb334450", "lat": 39.084379}, {"lon": -77.046564, "rental_uris": {"android": "https://dc.lft.to/lastmile_qr_scan", "ios": "https://dc.lft.to/lastmile_qr_scan"}, "short_name": "31252", "capacity": 19, "region_id": "42", "name": "21st St & Pennsylvania Ave NW", "station_id": "0825388d-1f3f-11e7-bf6b-3863bb334450", "lat": 38.901539}, {"lon": -77.0235, "rental_uris": {"android": "https://dc.lft.to/lastmile_qr_scan", "ios": "https://dc.lft.to/lastmile_qr_scan"}, "short_name": "31419", "capacity": 19, "region_id": "42", "name": "Georgia Ave & Morton St NW", "station_id": "461df1a0-fac6-4a11-ac4c-ff795e6299c9", "lat": 38.932128}, {"lon": -77.220829, "rental_uris": {"android": "https://dc.lft.to/lastmile_qr_scan", "ios": "https://dc.lft.to/lastmile_qr_scan"}, "short_name": "31381", "capacity": 12, "name": "Westbranch Dr & Maitland St", "station_id": "1900610962867255780", "lat": 38.927943}, {"lon": -76.9863852, "rental_uris": {"android": "https://dc.lft.to/lastmile_qr_scan", "ios": "https://dc.lft.to/lastmile_qr_scan"}, "short_name": "31663", "capacity": 19, "region_id": "42", "name": "14th & D St SE", "station_id": "55fc40ce-5be9-4e45-9c84-daacced3c852", "lat": 38.8840581}, {"lon": -77.041362, "rental_uris": {"android": "https://dc.lft.to/lastmile_qr_scan", "ios": "https://dc.lft.to/lastmile_qr_scan"}, "short_name": "31339", "capacity": 19, "name": "18th St & Ingleside Ter NW", "station_id": "1931715167823202508", "lat": 38.934784}, {"lon": -77.112754, "rental_uris": {"android": "https://dc.lft.to/lastmile_qr_scan", "ios": "https://dc.lft.to/lastmile_qr_scan"}, "short_name": "31049", "capacity": 11, "region_id": "41", "name": "Fairfax Dr & N Taylor St", "station_id": "8dfb34e2-7f75-4359-a374-5bf5e86c4793", "lat": 38.882425}, {"lon": -77.013821, "rental_uris": {"android": "https://dc.lft.to/lastmile_qr_scan", "ios": "https://dc.lft.to/lastmile_qr_scan"}, "short_name": "31423", "capacity": 19, "region_id": "42", "name": "Kansas Ave & Longfellow St NW", "station_id": "d1fd7121-67e3-46a9-b415-e84a565394f2", "lat": 38.958098}, {"lon": -76.9595, "rental_uris": {"android": "https://dc.lft.to/lastmile_qr_scan", "ios": "https://dc.lft.to/lastmile_qr_scan"}, "short_name": "32410", "capacity": 15, "region_id": "133", "name": "Queens Chapel & Hamilton St", "station_id": "27d919c7-7fda-41d1-9c05-2f537d5c4ce2", "lat": 38.9546}, {"lon": -76.983585, "rental_uris": {"android": "https://dc.lft.to/lastmile_qr_scan", "ios": "https://dc.lft.to/lastmile_qr_scan"}, "short_name": "31829", "capacity": 15, "region_id": "42", "name": "16th & Bangor St SE", "station_id": "7c790f6e-7889-4c3c-97d6-ffd37e68bb2d", "lat": 38.86044}, {"lon": -77.01994, "rental_uris": {"android": "https://dc.lft.to/lastmile_qr_scan", "ios": "https://dc.lft.to/lastmile_qr_scan"}, "short_name": "31264", "capacity": 19, "region_id": "42", "name": "6th St & Indiana Ave NW", "station_id": "08252414-1f3f-11e7-bf6b-3863bb334450", "lat": 38.894573}, {"lon": -77.041539, "rental_uris": {"android": "https://dc.lft.to/lastmile_qr_scan", "ios": "https://dc.lft.to/lastmile_qr_scan"}, "short_name": "31242", "capacity": 27, "region_id": "42", "name": "18th St & Pennsylvania Ave NW", "station_id": "08250172-1f3f-11e7-bf6b-3863bb334450", "lat": 38.89968}, {"lon": -77.057619, "rental_uris": {"android": "https://dc.lft.to/lastmile_qr_scan", "ios": "https://dc.lft.to/lastmile_qr_scan"}, "short_name": "31085", "capacity": 16, "region_id": "40", "name": "Mount Vernon Ave & E Nelson Ave", "station_id": "0825f8da-1f3f-11e7-bf6b-3863bb334450", "lat": 38.820064}, {"lon": -77.04885238395946, "rental_uris": {"android": "https://dc.lft.to/lastmile_qr_scan", "ios": "https://dc.lft.to/lastmile_qr_scan"}, "short_name": "31127", "capacity": 17, "region_id": "42", "name": "22nd & H St NW", "station_id": "d325a449-32d7-488d-b746-9455ad003834", "lat": 38.89892546716842}, {"lon": -77.076986, "rental_uris": {"android": "https://dc.lft.to/lastmile_qr_scan", "ios": "https://dc.lft.to/lastmile_qr_scan"}, "short_name": "32051", "capacity": 15, "region_id": "44", "name": "Connecticut Ave & Chevy Chase Lake Dr", "station_id": "08261407-1f3f-11e7-bf6b-3863bb334450", "lat": 38.994113}, {"lon": -77.107906, "rental_uris": {"android": "https://dc.lft.to/lastmile_qr_scan", "ios": "https://dc.lft.to/lastmile_qr_scan"}, "short_name": "31069", "capacity": 11, "region_id": "41", "name": "N Pershing Dr & N George Mason Dr", "station_id": "082572b6-1f3f-11e7-bf6b-3863bb334450", "lat": 38.871822}, {"lon": -77.00575411319733, "rental_uris": {"android": "https://dc.lft.to/lastmile_qr_scan", "ios": "https://dc.lft.to/lastmile_qr_scan"}, "short_name": "31209", "capacity": 39, "region_id": "42", "name": "1st & N St SE", "station_id": "082484cf-1f3f-11e7-bf6b-3863bb334450", "lat": 38.875022735559995}, {"lon": -77.032008, "rental_uris": {"android": "https://dc.lft.to/lastmile_qr_scan", "ios": "https://dc.lft.to/lastmile_qr_scan"}, "short_name": "31202", "capacity": 19, "region_id": "42", "name": "14th & R St NW", "station_id": "0824799f-1f3f-11e7-bf6b-3863bb334450", "lat": 38.913046}, {"lon": -77.0675285, "rental_uris": {"android": "https://dc.lft.to/lastmile_qr_scan", "ios": "https://dc.lft.to/lastmile_qr_scan"}, "short_name": "31314", "capacity": 19, "region_id": "42", "name": "34th & Water St NW", "station_id": "0825f3d4-1f3f-11e7-bf6b-3863bb334450", "lat": 38.9037315}, {"lon": -76.916243, "rental_uris": {"android": "https://dc.lft.to/lastmile_qr_scan", "ios": "https://dc.lft.to/lastmile_qr_scan"}, "short_name": "32426", "capacity": 11, "region_id": "133", "name": "Greenbelt Station Parkway", "station_id": "cec05512-b9d1-4671-bc76-8b168079db93", "lat": 39.002459}, {"lon": -77.09169, "rental_uris": {"android": "https://dc.lft.to/lastmile_qr_scan", "ios": "https://dc.lft.to/lastmile_qr_scan"}, "short_name": "31079", "capacity": 15, "region_id": "41", "name": "Langston Blvd & N Cleveland St", "station_id": "0825f4f2-1f3f-11e7-bf6b-3863bb334450", "lat": 38.894941}, {"lon": -77.097426, "rental_uris": {"android": "https://dc.lft.to/lastmile_qr_scan", "ios": "https://dc.lft.to/lastmile_qr_scan"}, "short_name": "32002", "capacity": 19, "region_id": "44", "name": "Bethesda Ave & Arlington Rd", "station_id": "0825738d-1f3f-11e7-bf6b-3863bb334450", "lat": 38.981103}, {"lon": -77.050264, "rental_uris": {"android": "https://dc.lft.to/lastmile_qr_scan", "ios": "https://dc.lft.to/lastmile_qr_scan"}, "short_name": "31128", "capacity": 19, "region_id": "42", "name": "23rd & M St NW", "station_id": "5b745524-d0d3-4197-8c69-0ad4e5761883", "lat": 38.905303}, {"lon": -76.945495, "rental_uris": {"android": "https://dc.lft.to/lastmile_qr_scan", "ios": "https://dc.lft.to/lastmile_qr_scan"}, "short_name": "32086", "capacity": 19, "region_id": "44", "name": "Briggs Chaney & Castle Dr", "station_id": "5075ddc9-7546-44a6-9445-0a48a53267df", "lat": 39.081638}, {"lon": -76.98825001716614, "rental_uris": {"android": "https://dc.lft.to/lastmile_qr_scan", "ios": "https://dc.lft.to/lastmile_qr_scan"}, "short_name": "31611", "capacity": 31, "region_id": "42", "name": "13th & H St NE", "station_id": "08249fbc-1f3f-11e7-bf6b-3863bb334450", "lat": 38.90042673988099}, {"lon": -77.005483, "rental_uris": {"android": "https://dc.lft.to/lastmile_qr_scan", "ios": "https://dc.lft.to/lastmile_qr_scan"}, "short_name": "31603", "capacity": 15, "region_id": "42", "name": "1st & M St NE", "station_id": "0824927c-1f3f-11e7-bf6b-3863bb334450", "lat": 38.905697}, {"lon": -77.012808, "rental_uris": {"android": "https://dc.lft.to/lastmile_qr_scan", "ios": "https://dc.lft.to/lastmile_qr_scan"}, "short_name": "31418", "capacity": 19, "region_id": "42", "name": "New Hampshire & Gallatin St NW", "station_id": "89263cc9-13f6-4185-b315-5164c9bb930e", "lat": 38.951596}, {"lon": -77.362304, "rental_uris": {"android": "https://dc.lft.to/lastmile_qr_scan", "ios": "https://dc.lft.to/lastmile_qr_scan"}, "short_name": "32247", "capacity": 12, "region_id": "104", "name": "South Lakes Dr and Reston Pkwy", "station_id": "d3cf2811-ca2e-4d2c-9843-8a90049b7b80", "lat": 38.94335}, {"lon": -77.204762, "rental_uris": {"android": "https://dc.lft.to/lastmile_qr_scan", "ios": "https://dc.lft.to/lastmile_qr_scan"}, "short_name": "32298", "capacity": 11, "name": "Chain Bridge Rd & Anderson Rd", "station_id": "1957757292469049786", "lat": 38.925572}, {"lon": -76.9493, "rental_uris": {"android": "https://dc.lft.to/lastmile_qr_scan", "ios": "https://dc.lft.to/lastmile_qr_scan"}, "short_name": "32417", "capacity": 15, "region_id": "133", "name": "Hyattsville Library / Adelphi Rd & Toledo Rd", "station_id": "bcb21167-85ed-4374-8807-d9409aaa01a5", "lat": 38.9698}, {"lon": -77.072558, "rental_uris": {"android": "https://dc.lft.to/lastmile_qr_scan", "ios": "https://dc.lft.to/lastmile_qr_scan"}, "short_name": "31974", "capacity": 12, "region_id": "40", "name": "Mandeville Ln & Stovall St", "station_id": "141766fa-fa3b-4c61-8e46-a8673c910a0c", "lat": 38.802893}, {"lon": -77.026747, "rental_uris": {"android": "https://dc.lft.to/lastmile_qr_scan", "ios": "https://dc.lft.to/lastmile_qr_scan"}, "short_name": "31425", "capacity": 19, "region_id": "42", "name": "Georgia Ave & Dahlia St NW", "station_id": "f8b331c6-d208-4b17-b788-1a17d2520c40", "lat": 38.976061}, {"lon": -77.02159523963928, "rental_uris": {"android": "https://dc.lft.to/lastmile_qr_scan", "ios": "https://dc.lft.to/lastmile_qr_scan"}, "short_name": "31130", "capacity": 19, "region_id": "42", "name": "7th & S St NW", "station_id": "4f9000ec-e47e-494e-9b49-61e95b5a6f03", "lat": 38.914173639930105}, {"lon": -77.084636, "rental_uris": {"android": "https://dc.lft.to/lastmile_qr_scan", "ios": "https://dc.lft.to/lastmile_qr_scan"}, "short_name": "31317", "capacity": 19, "region_id": "42", "name": "Wisconsin Ave & Ingomar St NW", "station_id": "0826176a-1f3f-11e7-bf6b-3863bb334450", "lat": 38.958267}, {"lon": -77.00591, "rental_uris": {"android": "https://dc.lft.to/lastmile_qr_scan", "ios": "https://dc.lft.to/lastmile_qr_scan"}, "short_name": "31668", "capacity": 19, "region_id": "42", "name": "1st St & Potomac Ave SE", "station_id": "66c82803-70e3-496f-9942-30e0936de3f5", "lat": 38.871841}, {"lon": -77.159048, "rental_uris": {"android": "https://dc.lft.to/lastmile_qr_scan", "ios": "https://dc.lft.to/lastmile_qr_scan"}, "short_name": "32023", "capacity": 21, "region_id": "43", "name": "Montgomery College / W Campus Dr & Mannakee St", "station_id": "0825aa94-1f3f-11e7-bf6b-3863bb334450", "lat": 39.095661}, {"lon": -77.050537, "rental_uris": {"android": "https://dc.lft.to/lastmile_qr_scan", "ios": "https://dc.lft.to/lastmile_qr_scan"}, "short_name": "31052", "capacity": 15, "region_id": "41", "name": "Potomac Ave & 35th St S", "station_id": "0824e2e3-1f3f-11e7-bf6b-3863bb334450", "lat": 38.844015}, {"lon": -77.040691, "rental_uris": {"android": "https://dc.lft.to/lastmile_qr_scan", "ios": "https://dc.lft.to/lastmile_qr_scan"}, "short_name": "31918", "capacity": 15, "region_id": "40", "name": "Madison St & Fairfax St", "station_id": "08264173-1f3f-11e7-bf6b-3863bb334450", "lat": 38.812351}, {"lon": -77.059496, "rental_uris": {"android": "https://dc.lft.to/lastmile_qr_scan", "ios": "https://dc.lft.to/lastmile_qr_scan"}, "short_name": "31938", "capacity": 15, "region_id": "41", "name": "23rd St S & Hayes St", "station_id": "99644655-ef85-4e13-a331-a344d88ded32", "lat": 38.853002}, {"lon": -77.03353, "rental_uris": {"android": "https://dc.lft.to/lastmile_qr_scan", "ios": "https://dc.lft.to/lastmile_qr_scan"}, "short_name": "31254", "capacity": 27, "region_id": "42", "name": "15th & K St NW", "station_id": "08253b2b-1f3f-11e7-bf6b-3863bb334450", "lat": 38.902}, {"lon": -76.844604, "rental_uris": {"android": "https://dc.lft.to/lastmile_qr_scan", "ios": "https://dc.lft.to/lastmile_qr_scan"}, "short_name": "32401", "capacity": 17, "region_id": "133", "name": "Largo Town Center Metro", "station_id": "29b65d73-fc99-42e3-9007-2175402a5c56", "lat": 38.899811}, {"lon": -76.98790669441223, "rental_uris": {"android": "https://dc.lft.to/lastmile_qr_scan", "ios": "https://dc.lft.to/lastmile_qr_scan"}, "short_name": "31607", "capacity": 15, "region_id": "42", "name": "13th & E St SE", "station_id": "082494e7-1f3f-11e7-bf6b-3863bb334450", "lat": 38.88291548476762}, {"lon": -77.031887, "rental_uris": {"android": "https://dc.lft.to/lastmile_qr_scan", "ios": "https://dc.lft.to/lastmile_qr_scan"}, "short_name": "31119", "capacity": 15, "region_id": "42", "name": "14th & Belmont St NW", "station_id": "08258d95-1f3f-11e7-bf6b-3863bb334450", "lat": 38.921074}, {"lon": -77.05152, "rental_uris": {"android": "https://dc.lft.to/lastmile_qr_scan", "ios": "https://dc.lft.to/lastmile_qr_scan"}, "short_name": "31012", "capacity": 12, "region_id": "41", "name": "Clark St & 26th St S", "station_id": "0824739d-1f3f-11e7-bf6b-3863bb334450", "lat": 38.850688}, {"lon": -77.082426, "rental_uris": {"android": "https://dc.lft.to/lastmile_qr_scan", "ios": "https://dc.lft.to/lastmile_qr_scan"}, "short_name": "31309", "capacity": 15, "region_id": "42", "name": "Fessenden St & Wisconsin Ave NW", "station_id": "08254529-1f3f-11e7-bf6b-3863bb334450", "lat": 38.954812}, {"lon": -76.983683, "rental_uris": {"android": "https://dc.lft.to/lastmile_qr_scan", "ios": "https://dc.lft.to/lastmile_qr_scan"}, "short_name": "31518", "capacity": 23, "region_id": "42", "name": "New York Ave & Hecht Ave NE", "station_id": "0826132d-1f3f-11e7-bf6b-3863bb334450", "lat": 38.915604}, {"lon": -77.100239, "rental_uris": {"android": "https://dc.lft.to/lastmile_qr_scan", "ios": "https://dc.lft.to/lastmile_qr_scan"}, "short_name": "32028", "capacity": 11, "region_id": "44", "name": "Norfolk & Rugby Ave", "station_id": "0825b27e-1f3f-11e7-bf6b-3863bb334450", "lat": 38.990639}, {"lon": -77.065803, "rental_uris": {"android": "https://dc.lft.to/lastmile_qr_scan", "ios": "https://dc.lft.to/lastmile_qr_scan"}, "short_name": "31978", "capacity": 19, "region_id": "41", "name": "Arlington National Cemetery", "station_id": "af5c5675-452b-4e1f-9d9f-7f4a0c50388d", "lat": 38.884533}, {"lon": -77.015289, "rental_uris": {"android": "https://dc.lft.to/lastmile_qr_scan", "ios": "https://dc.lft.to/lastmile_qr_scan"}, "short_name": "31604", "capacity": 15, "region_id": "42", "name": "3rd & H St NW", "station_id": "082493a5-1f3f-11e7-bf6b-3863bb334450", "lat": 38.899408}, {"lon": -77.118009, "rental_uris": {"android": "https://dc.lft.to/lastmile_qr_scan", "ios": "https://dc.lft.to/lastmile_qr_scan"}, "short_name": "31900", "capacity": 19, "region_id": "41", "name": "Langston Blvd & N Woodstock St", "station_id": "082614e4-1f3f-11e7-bf6b-3863bb334450", "lat": 38.898301}, {"lon": -76.980378, "rental_uris": {"android": "https://dc.lft.to/lastmile_qr_scan", "ios": "https://dc.lft.to/lastmile_qr_scan"}, "short_name": "31545", "capacity": 15, "name": "18th & Upshur St NE", "station_id": "1934708272694780030", "lat": 38.941733}, {"lon": -77.086263, "rental_uris": {"android": "https://dc.lft.to/lastmile_qr_scan", "ios": "https://dc.lft.to/lastmile_qr_scan"}, "short_name": "31391", "capacity": 19, "name": "44th St & New Mexico Ave NW", "station_id": "1877753940179542324", "lat": 38.933899}, {"lon": -77.050046, "rental_uris": {"android": "https://dc.lft.to/lastmile_qr_scan", "ios": "https://dc.lft.to/lastmile_qr_scan"}, "short_name": "31121", "capacity": 19, "region_id": "42", "name": "Calvert St & Woodley Pl NW", "station_id": "0825b8f0-1f3f-11e7-bf6b-3863bb334450", "lat": 38.923583}, {"lon": -76.978783, "rental_uris": {"android": "https://dc.lft.to/lastmile_qr_scan", "ios": "https://dc.lft.to/lastmile_qr_scan"}, "short_name": "31544", "capacity": 15, "name": "Michigan Ave & Allison St NE", "station_id": "1934706002043462112", "lat": 38.945068}, {"lon": -77.08426237106323, "rental_uris": {"android": "https://dc.lft.to/lastmile_qr_scan", "ios": "https://dc.lft.to/lastmile_qr_scan"}, "short_name": "31940", "capacity": 16, "region_id": "41", "name": "Arlington Blvd & Fairfax Dr", "station_id": "abd8bd04-94ec-4818-baf5-7f79742e982c", "lat": 38.88625606692058}, {"lon": -77.080319, "rental_uris": {"android": "https://dc.lft.to/lastmile_qr_scan", "ios": "https://dc.lft.to/lastmile_qr_scan"}, "short_name": "31053", "capacity": 15, "region_id": "41", "name": "Columbia Pike & S Courthouse Rd", "station_id": "0825460b-1f3f-11e7-bf6b-3863bb334450", "lat": 38.863833}, {"lon": -77.368416, "rental_uris": {"android": "https://dc.lft.to/lastmile_qr_scan", "ios": "https://dc.lft.to/lastmile_qr_scan"}, "short_name": "32219", "capacity": 15, "region_id": "104", "name": "Reston YMCA", "station_id": "08263f4a-1f3f-11e7-bf6b-3863bb334450", "lat": 38.955314}, {"lon": -77.047788, "rental_uris": {"android": "https://dc.lft.to/lastmile_qr_scan", "ios": "https://dc.lft.to/lastmile_qr_scan"}, "short_name": "32063", "capacity": 15, "region_id": "44", "name": "Amherst Ave & Elkins St", "station_id": "0826518d-1f3f-11e7-bf6b-3863bb334450", "lat": 39.044887}, {"lon": -76.974828, "rental_uris": {"android": "https://dc.lft.to/lastmile_qr_scan", "ios": "https://dc.lft.to/lastmile_qr_scan"}, "short_name": "31712", "capacity": 19, "region_id": "42", "name": "Oklahoma Ave & D St NE", "station_id": "08261245-1f3f-11e7-bf6b-3863bb334450", "lat": 38.894474}, {"lon": -76.996806, "rental_uris": {"android": "https://dc.lft.to/lastmile_qr_scan", "ios": "https://dc.lft.to/lastmile_qr_scan"}, "short_name": "31610", "capacity": 15, "region_id": "42", "name": "Eastern Market / 7th & North Carolina Ave SE", "station_id": "08249a1c-1f3f-11e7-bf6b-3863bb334450", "lat": 38.886952}, {"lon": -77.202501, "rental_uris": {"android": "https://dc.lft.to/lastmile_qr_scan", "ios": "https://dc.lft.to/lastmile_qr_scan"}, "short_name": "32005", "capacity": 19, "region_id": "43", "name": "Traville Gateway Dr & Gudelsky Dr", "station_id": "08257f71-1f3f-11e7-bf6b-3863bb334450", "lat": 39.093783}, {"lon": -77.241518, "rental_uris": {"android": "https://dc.lft.to/lastmile_qr_scan", "ios": "https://dc.lft.to/lastmile_qr_scan"}, "short_name": "32297", "capacity": 11, "name": "Hilltop Rd & Willowmere Dr ", "station_id": "1957750905852681124", "lat": 38.876903}, {"lon": -76.980715, "rental_uris": {"android": "https://dc.lft.to/lastmile_qr_scan", "ios": "https://dc.lft.to/lastmile_qr_scan"}, "short_name": "31727", "capacity": 19, "name": "17th St & Potomac Ave SE / Congressional Cemetery ", "station_id": "1941813138517442794", "lat": 38.882458}, {"lon": -77.207261, "rental_uris": {"android": "https://dc.lft.to/lastmile_qr_scan", "ios": "https://dc.lft.to/lastmile_qr_scan"}, "short_name": "32264", "capacity": 12, "region_id": "104", "name": "Pimmit Dr & Idyl Ln", "station_id": "4b55ad18-eb2e-47b5-aaeb-aefd6ad856fd", "lat": 38.897692}, {"lon": -77.00574070215225, "rental_uris": {"android": "https://dc.lft.to/lastmile_qr_scan", "ios": "https://dc.lft.to/lastmile_qr_scan"}, "short_name": "31828", "capacity": 19, "region_id": "42", "name": "New Jersey Ave & H St SE", "station_id": "2574f980-163e-4b9b-8107-6145615815b3", "lat": 38.880760725950644}, {"lon": -77.022241, "rental_uris": {"android": "https://dc.lft.to/lastmile_qr_scan", "ios": "https://dc.lft.to/lastmile_qr_scan"}, "short_name": "31218", "capacity": 15, "region_id": "42", "name": "L'Enfant Plaza / 7th & C St SW", "station_id": "08249d44-1f3f-11e7-bf6b-3863bb334450", "lat": 38.886266}, {"lon": -77.340787, "rental_uris": {"android": "https://dc.lft.to/lastmile_qr_scan", "ios": "https://dc.lft.to/lastmile_qr_scan"}, "short_name": "32223", "capacity": 11, "region_id": "104", "name": "North Shore Dr & Village Rd", "station_id": "0826533b-1f3f-11e7-bf6b-3863bb334450", "lat": 38.970412}, {"lon": -77.132334, "rental_uris": {"android": "https://dc.lft.to/lastmile_qr_scan", "ios": "https://dc.lft.to/lastmile_qr_scan"}, "short_name": "31953", "capacity": 15, "region_id": "40", "name": "S Pickett St & Shillings St", "station_id": "2260574d-dbc6-4416-9f8c-3e1fcc0d9f5b", "lat": 38.804486}, {"lon": -76.936073, "rental_uris": {"android": "https://dc.lft.to/lastmile_qr_scan", "ios": "https://dc.lft.to/lastmile_qr_scan"}, "short_name": "32431", "capacity": 15, "region_id": "133", "name": "Baltimore Avenue and Hotel Drive at UMD", "station_id": "2007431383556444258", "lat": 38.986639}, {"lon": -77.053085, "rental_uris": {"android": "https://dc.lft.to/lastmile_qr_scan", "ios": "https://dc.lft.to/lastmile_qr_scan"}, "short_name": "32065", "capacity": 15, "region_id": "44", "name": "Grandview & Blueridge Ave", "station_id": "08265262-1f3f-11e7-bf6b-3863bb334450", "lat": 39.043272}, {"lon": -77.173605, "rental_uris": {"android": "https://dc.lft.to/lastmile_qr_scan", "ios": "https://dc.lft.to/lastmile_qr_scan"}, "short_name": "32608", "capacity": 12, "region_id": "152", "name": "Falls Church City Hall / Park Ave & Little Falls St", "station_id": "3735d025-7e82-467c-8844-29d08d66b0e4", "lat": 38.885434}, {"lon": -77.107854, "rental_uris": {"android": "https://dc.lft.to/lastmile_qr_scan", "ios": "https://dc.lft.to/lastmile_qr_scan"}, "short_name": "31039", "capacity": 15, "region_id": "41", "name": "Wilson Blvd & N Quincy St", "station_id": "08252a00-1f3f-11e7-bf6b-3863bb334450", "lat": 38.880012}, {"lon": -77.026141, "rental_uris": {"android": "https://dc.lft.to/lastmile_qr_scan", "ios": "https://dc.lft.to/lastmile_qr_scan"}, "short_name": "31633", "capacity": 23, "region_id": "42", "name": "Independence Ave & L'Enfant Plaza SW/DOE", "station_id": "08256e7b-1f3f-11e7-bf6b-3863bb334450", "lat": 38.887332}, {"lon": -77.000349, "rental_uris": {"android": "https://dc.lft.to/lastmile_qr_scan", "ios": "https://dc.lft.to/lastmile_qr_scan"}, "short_name": "31618", "capacity": 11, "region_id": "42", "name": "4th & East Capitol St NE", "station_id": "0824c1a1-1f3f-11e7-bf6b-3863bb334450", "lat": 38.889955}, {"lon": -77.058468, "rental_uris": {"android": "https://dc.lft.to/lastmile_qr_scan", "ios": "https://dc.lft.to/lastmile_qr_scan"}, "short_name": "31338", "capacity": 15, "name": "Connecticut Ave & Ordway St NW / Cleveland Park Metro ", "station_id": "1928837279316128558", "lat": 38.935842}, {"lon": -77.0473176240921, "rental_uris": {"android": "https://dc.lft.to/lastmile_qr_scan", "ios": "https://dc.lft.to/lastmile_qr_scan"}, "short_name": "31212", "capacity": 19, "region_id": "42", "name": "New Hampshire Ave & Ward Pl NW", "station_id": "082492e1-1f3f-11e7-bf6b-3863bb334450", "lat": 38.90571079190728}, {"lon": -77.104784, "rental_uris": {"android": "https://dc.lft.to/lastmile_qr_scan", "ios": "https://dc.lft.to/lastmile_qr_scan"}, "short_name": "31973", "capacity": 15, "region_id": "41", "name": "N Pershing Dr & N Quebec St", "station_id": "174fc644-1a5a-4923-a8b5-373e0ad04525", "lat": 38.874248}, {"lon": -77.05003, "rental_uris": {"android": "https://dc.lft.to/lastmile_qr_scan", "ios": "https://dc.lft.to/lastmile_qr_scan"}, "short_name": "31090", "capacity": 15, "region_id": "41", "name": "Long Bridge Park / Long Bridge Dr & 6th St S", "station_id": "0825fb66-1f3f-11e7-bf6b-3863bb334450", "lat": 38.865553}, {"lon": -77.066409, "rental_uris": {"android": "https://dc.lft.to/lastmile_qr_scan", "ios": "https://dc.lft.to/lastmile_qr_scan"}, "short_name": "31428", "capacity": 15, "name": "Western Ave & Pinehurst Cir NW ", "station_id": "1939176485434179842", "lat": 38.975739}, {"lon": -77.219261, "rental_uris": {"android": "https://dc.lft.to/lastmile_qr_scan", "ios": "https://dc.lft.to/lastmile_qr_scan"}, "short_name": "32206", "capacity": 13, "region_id": "104", "name": "Jones Branch & Westbranch Dr", "station_id": "082636d5-1f3f-11e7-bf6b-3863bb334450", "lat": 38.931911}, {"lon": -77.017585, "rental_uris": {"android": "https://dc.lft.to/lastmile_qr_scan", "ios": "https://dc.lft.to/lastmile_qr_scan"}, "short_name": "31678", "capacity": 15, "region_id": "42", "name": "4th & O St SW", "station_id": "9c6fb0a8-d371-433f-b52e-ca47881156b3", "lat": 38.872964}, {"lon": -77.15284913778305, "rental_uris": {"android": "https://dc.lft.to/lastmile_qr_scan", "ios": "https://dc.lft.to/lastmile_qr_scan"}, "short_name": "32601", "capacity": 12, "region_id": "152", "name": "Eden Center", "station_id": "a016ea6f-0d7f-45fb-b8ac-0cfe22cd972a", "lat": 38.87380771851765}, {"lon": -77.04735, "rental_uris": {"android": "https://dc.lft.to/lastmile_qr_scan", "ios": "https://dc.lft.to/lastmile_qr_scan"}, "short_name": "32066", "capacity": 15, "region_id": "44", "name": "Windham Ln & Amherst Ave", "station_id": "082652d2-1f3f-11e7-bf6b-3863bb334450", "lat": 39.032029}, {"lon": -77.045469, "rental_uris": {"android": "https://dc.lft.to/lastmile_qr_scan", "ios": "https://dc.lft.to/lastmile_qr_scan"}, "short_name": "31133", "capacity": 19, "region_id": "42", "name": "20th St & Columbia Rd NW", "station_id": "7346145e-f487-4f07-acb8-ed3e0b8b56bb", "lat": 38.918103}, {"lon": -77.05305218696594, "rental_uris": {"android": "https://dc.lft.to/lastmile_qr_scan", "ios": "https://dc.lft.to/lastmile_qr_scan"}, "short_name": "31297", "capacity": 19, "region_id": "42", "name": "Virginia Ave & 25th St NW", "station_id": "bce02846-6f5e-466a-a643-50534a119533", "lat": 38.89846038350939}, {"lon": -77.027163, "rental_uris": {"android": "https://dc.lft.to/lastmile_qr_scan", "ios": "https://dc.lft.to/lastmile_qr_scan"}, "short_name": "31426", "capacity": 15, "region_id": "42", "name": "10th St & Spring Rd NW", "station_id": "63fa246c-6bed-41f0-97eb-d2d7888c1db0", "lat": 38.936228}, {"lon": -77.032427, "rental_uris": {"android": "https://dc.lft.to/lastmile_qr_scan", "ios": "https://dc.lft.to/lastmile_qr_scan"}, "short_name": "31247", "capacity": 23, "region_id": "42", "name": "Jefferson Dr & 14th St SW", "station_id": "08252260-1f3f-11e7-bf6b-3863bb334450", "lat": 38.8885525}, {"lon": -76.955047, "rental_uris": {"android": "https://dc.lft.to/lastmile_qr_scan", "ios": "https://dc.lft.to/lastmile_qr_scan"}, "short_name": "32413", "capacity": 15, "region_id": "133", "name": "Rhode Island Ave & 39th St / Brentwood Arts Exchange", "station_id": "199df30f-328b-48af-8627-952bd9d6fe7c", "lat": 38.939271}, {"lon": -77.029822, "rental_uris": {"android": "https://dc.lft.to/lastmile_qr_scan", "ios": "https://dc.lft.to/lastmile_qr_scan"}, "short_name": "31227", "capacity": 27, "region_id": "42", "name": "13th St & New York Ave NW", "station_id": "0824aa39-1f3f-11e7-bf6b-3863bb334450", "lat": 38.900283}, {"lon": -76.9757228, "rental_uris": {"android": "https://dc.lft.to/lastmile_qr_scan", "ios": "https://dc.lft.to/lastmile_qr_scan"}, "short_name": "32087", "capacity": 15, "region_id": "44", "name": "White Oak Rec Center", "station_id": "2213781a-5c69-43eb-9b33-346d61e7e1ba", "lat": 39.0461435}, {"lon": -77.1009886264801, "rental_uris": {"android": "https://dc.lft.to/lastmile_qr_scan", "ios": "https://dc.lft.to/lastmile_qr_scan"}, "short_name": "31033", "capacity": 11, "region_id": "41", "name": "Barcroft Community Center", "station_id": "08251c45-1f3f-11e7-bf6b-3863bb334450", "lat": 38.85033657788445}, {"lon": -77.040363, "rental_uris": {"android": "https://dc.lft.to/lastmile_qr_scan", "ios": "https://dc.lft.to/lastmile_qr_scan"}, "short_name": "31041", "capacity": 19, "region_id": "40", "name": "Prince St & Union St", "station_id": "08253976-1f3f-11e7-bf6b-3863bb334450", "lat": 38.803124}, {"lon": -77.09221, "rental_uris": {"android": "https://dc.lft.to/lastmile_qr_scan", "ios": "https://dc.lft.to/lastmile_qr_scan"}, "short_name": "32003", "capacity": 11, "region_id": "44", "name": "Montgomery Ave & Waverly St ", "station_id": "0825756e-1f3f-11e7-bf6b-3863bb334450", "lat": 38.983838}, {"lon": -77.086599, "rental_uris": {"android": "https://dc.lft.to/lastmile_qr_scan", "ios": "https://dc.lft.to/lastmile_qr_scan"}, "short_name": "31067", "capacity": 12, "region_id": "41", "name": "Columbia Pike & S Walter Reed Dr", "station_id": "08256fcd-1f3f-11e7-bf6b-3863bb334450", "lat": 38.862478}, {"lon": -77.03665, "rental_uris": {"android": "https://dc.lft.to/lastmile_qr_scan", "ios": "https://dc.lft.to/lastmile_qr_scan"}, "short_name": "31135", "capacity": 19, "region_id": "42", "name": "16th & Harvard St NW", "station_id": "ae007456-14ad-4619-a92e-e3a40f93a412", "lat": 38.926102}, {"lon": -77.02824175357819, "rental_uris": {"android": "https://dc.lft.to/lastmile_qr_scan", "ios": "https://dc.lft.to/lastmile_qr_scan"}, "short_name": "31217", "capacity": 47, "region_id": "42", "name": "USDA / 12th & C St SW", "station_id": "08249b7f-1f3f-11e7-bf6b-3863bb334450", "lat": 38.88627694506511}, {"lon": -77.35345423221588, "rental_uris": {"android": "https://dc.lft.to/lastmile_qr_scan", "ios": "https://dc.lft.to/lastmile_qr_scan"}, "short_name": "32251", "capacity": 12, "region_id": "104", "name": "Lake Newport Rd and Autumn Ridge Cir", "station_id": "29f174dd-e7bc-4329-a570-0220f0d1be84", "lat": 38.97850255151454}, {"lon": -76.97285145521163, "rental_uris": {"android": "https://dc.lft.to/lastmile_qr_scan", "ios": "https://dc.lft.to/lastmile_qr_scan"}, "short_name": "31543", "capacity": 15, "region_id": "42", "name": "24th St & Rhode Island Ave NE", "station_id": "77cd13d5-f671-437a-a59c-bcc74c6b211e", "lat": 38.93077415308313}, {"lon": -77.03442692756653, "rental_uris": {"android": "https://dc.lft.to/lastmile_qr_scan", "ios": "https://dc.lft.to/lastmile_qr_scan"}, "short_name": "31201", "capacity": 19, "region_id": "42", "name": "15th & P St NW", "station_id": "0824791a-1f3f-11e7-bf6b-3863bb334450", "lat": 38.90980062655191}, {"lon": -77.293922, "rental_uris": {"android": "https://dc.lft.to/lastmile_qr_scan", "ios": "https://dc.lft.to/lastmile_qr_scan"}, "short_name": "32281", "capacity": 12, "name": "Fair Woods Pkwy & Fairfax Blvd", "station_id": "1875305027705686898", "lat": 38.862804}, {"lon": -77.0296311378479, "rental_uris": {"android": "https://dc.lft.to/lastmile_qr_scan", "ios": "https://dc.lft.to/lastmile_qr_scan"}, "short_name": "31132", "capacity": 19, "region_id": "42", "name": "13th & U St NW", "station_id": "732103a1-eedd-4044-afa6-67b2d192ff22", "lat": 38.91693645323652}, {"lon": -76.935578, "rental_uris": {"android": "https://dc.lft.to/lastmile_qr_scan", "ios": "https://dc.lft.to/lastmile_qr_scan"}, "short_name": "32421", "capacity": 17, "region_id": "133", "name": "Riverdale Park Town Center", "station_id": "d8f65b11-57ec-4a9f-9b52-f5696e129f02", "lat": 38.962119}, {"lon": -76.9960230588913, "rental_uris": {"android": "https://dc.lft.to/lastmile_qr_scan", "ios": "https://dc.lft.to/lastmile_qr_scan"}, "short_name": "31531", "capacity": 19, "region_id": "42", "name": "MBT & Bryant St NE", "station_id": "0627dc3c-5c62-4ab1-a6f0-3635c6f80d23", "lat": 38.92240364115446}, {"lon": -77.04177886247635, "rental_uris": {"android": "https://dc.lft.to/lastmile_qr_scan", "ios": "https://dc.lft.to/lastmile_qr_scan"}, "short_name": "31221", "capacity": 27, "region_id": "42", "name": "18th & M St NW", "station_id": "08249ef2-1f3f-11e7-bf6b-3863bb334450", "lat": 38.90506687455313}, {"lon": -76.933099, "rental_uris": {"android": "https://dc.lft.to/lastmile_qr_scan", "ios": "https://dc.lft.to/lastmile_qr_scan"}, "short_name": "31711", "capacity": 15, "region_id": "42", "name": "Deanwood Rec Center", "station_id": "0825baa3-1f3f-11e7-bf6b-3863bb334450", "lat": 38.908473}, {"lon": -76.949287, "rental_uris": {"android": "https://dc.lft.to/lastmile_qr_scan", "ios": "https://dc.lft.to/lastmile_qr_scan"}, "short_name": "32427", "capacity": 15, "region_id": "133", "name": "40th Ave & Bladensburg Rd", "station_id": "1999643103701119546", "lat": 38.935388}, {"lon": -77.021392, "rental_uris": {"android": "https://dc.lft.to/lastmile_qr_scan", "ios": "https://dc.lft.to/lastmile_qr_scan"}, "short_name": "31653", "capacity": 19, "region_id": "42", "name": "7th & K St NW", "station_id": "a0d0ec92-ebda-436a-b476-7ee9a7bdb67d", "lat": 38.902674}, {"lon": -76.947974, "rental_uris": {"android": "https://dc.lft.to/lastmile_qr_scan", "ios": "https://dc.lft.to/lastmile_qr_scan"}, "short_name": "31705", "capacity": 11, "region_id": "42", "name": "Benning Branch Library", "station_id": "08249b10-1f3f-11e7-bf6b-3863bb334450", "lat": 38.894}, {"lon": -77.160014, "rental_uris": {"android": "https://dc.lft.to/lastmile_qr_scan", "ios": "https://dc.lft.to/lastmile_qr_scan"}, "short_name": "32288", "capacity": 12, "name": "Seatrend Way & Topsails Ln", "station_id": "1917259953969440770", "lat": 38.775639}, {"lon": -77.02791, "rental_uris": {"android": "https://dc.lft.to/lastmile_qr_scan", "ios": "https://dc.lft.to/lastmile_qr_scan"}, "short_name": "31415", "capacity": 19, "region_id": "42", "name": "Georgia Ave & Kennedy St NW", "station_id": "568a84a6-8911-48aa-8ad4-9a1b46564e9d", "lat": 38.95674}, {"lon": -77.037413, "rental_uris": {"android": "https://dc.lft.to/lastmile_qr_scan", "ios": "https://dc.lft.to/lastmile_qr_scan"}, "short_name": "31249", "capacity": 23, "region_id": "42", "name": "Jefferson Memorial", "station_id": "082527e7-1f3f-11e7-bf6b-3863bb334450", "lat": 38.879819}, {"lon": -77.086061, "rental_uris": {"android": "https://dc.lft.to/lastmile_qr_scan", "ios": "https://dc.lft.to/lastmile_qr_scan"}, "short_name": "31908", "capacity": 11, "region_id": "40", "name": "Radford & Osage St", "station_id": "08261ee4-1f3f-11e7-bf6b-3863bb334450", "lat": 38.828471}, {"lon": -77.23037748489112, "rental_uris": {"android": "https://dc.lft.to/lastmile_qr_scan", "ios": "https://dc.lft.to/lastmile_qr_scan"}, "short_name": "31386", "capacity": 11, "name": "Prosperity Ave & Avenir Pl", "station_id": "1893303738183408178", "lat": 38.88143586412813}, {"lon": -77.095513, "rental_uris": {"android": "https://dc.lft.to/lastmile_qr_scan", "ios": "https://dc.lft.to/lastmile_qr_scan"}, "short_name": "31322", "capacity": 15, "region_id": "42", "name": "48th Pl & MacArthur Blvd NW", "station_id": "e07eed7c-2d2a-4f13-aff7-2be6500958f7", "lat": 38.916561}, {"lon": -77.095431, "rental_uris": {"android": "https://dc.lft.to/lastmile_qr_scan", "ios": "https://dc.lft.to/lastmile_qr_scan"}, "short_name": "31059", "capacity": 12, "region_id": "41", "name": "S Four Mile Run Dr & Walter Reed Dr", "station_id": "08254d7e-1f3f-11e7-bf6b-3863bb334450", "lat": 38.84736}, {"lon": -77.02232748270035, "rental_uris": {"android": "https://dc.lft.to/lastmile_qr_scan", "ios": "https://dc.lft.to/lastmile_qr_scan"}, "short_name": "31207", "capacity": 15, "region_id": "42", "name": "Georgia Ave & Fairmont St NW", "station_id": "0824844b-1f3f-11e7-bf6b-3863bb334450", "lat": 38.924784585266956}, {"lon": -77.02623546123505, "rental_uris": {"android": "https://dc.lft.to/lastmile_qr_scan", "ios": "https://dc.lft.to/lastmile_qr_scan"}, "short_name": "31274", "capacity": 23, "region_id": "42", "name": "10th & G St NW", "station_id": "0825f622-1f3f-11e7-bf6b-3863bb334450", "lat": 38.89824328774852}, {"lon": -76.983144, "rental_uris": {"android": "https://dc.lft.to/lastmile_qr_scan", "ios": "https://dc.lft.to/lastmile_qr_scan"}, "short_name": "31823", "capacity": 19, "region_id": "42", "name": "United Medical Center", "station_id": "5f0f9566-90d4-431e-9b6d-994e26d20ec6", "lat": 38.835737}, {"lon": -77.051956, "rental_uris": {"android": "https://dc.lft.to/lastmile_qr_scan", "ios": "https://dc.lft.to/lastmile_qr_scan"}, "short_name": "31944", "capacity": 12, "region_id": "41", "name": "S Clark St & 33rd St", "station_id": "e2a96f4c-801e-4cf8-be0f-f767a5d8ca1b", "lat": 38.845028}, {"lon": -77.351649, "rental_uris": {"android": "https://dc.lft.to/lastmile_qr_scan", "ios": "https://dc.lft.to/lastmile_qr_scan"}, "short_name": "32213", "capacity": 15, "region_id": "104", "name": "W&OD Trail/Sunset Hills Rd & Old Reston Ave", "station_id": "082639c8-1f3f-11e7-bf6b-3863bb334450", "lat": 38.955079}, {"lon": -77.110588, "rental_uris": {"android": "https://dc.lft.to/lastmile_qr_scan", "ios": "https://dc.lft.to/lastmile_qr_scan"}, "short_name": "31946", "capacity": 11, "region_id": "40", "name": "Kenmore Ave & Seminary Rd", "station_id": "347b72fa-4ae2-4017-a9bf-344a122cddeb", "lat": 38.828887}, {"lon": -76.9695094, "rental_uris": {"android": "https://dc.lft.to/lastmile_qr_scan", "ios": "https://dc.lft.to/lastmile_qr_scan"}, "short_name": "31719", "capacity": 19, "region_id": "42", "name": "Oklahoma Ave & Benning Rd NE", "station_id": "54962348-19dd-47b8-a816-bce25eb658a1", "lat": 38.8974996}, {"lon": -77.038684, "rental_uris": {"android": "https://dc.lft.to/lastmile_qr_scan", "ios": "https://dc.lft.to/lastmile_qr_scan"}, "short_name": "31420", "capacity": 19, "region_id": "42", "name": "17th & Upshur St NW", "station_id": "72e7c396-11ad-4e88-bf4b-e60584f748fc", "lat": 38.942146}, {"lon": -76.947446, "rental_uris": {"android": "https://dc.lft.to/lastmile_qr_scan", "ios": "https://dc.lft.to/lastmile_qr_scan"}, "short_name": "31703", "capacity": 15, "region_id": "42", "name": "Minnesota Ave Metro/DOES", "station_id": "0824806c-1f3f-11e7-bf6b-3863bb334450", "lat": 38.897063}, {"lon": -77.358741, "rental_uris": {"android": "https://dc.lft.to/lastmile_qr_scan", "ios": "https://dc.lft.to/lastmile_qr_scan"}, "short_name": "32216", "capacity": 15, "region_id": "104", "name": "Library St & Freedom Dr", "station_id": "08263b6d-1f3f-11e7-bf6b-3863bb334450", "lat": 38.959633}, {"lon": -77.050105, "rental_uris": {"android": "https://dc.lft.to/lastmile_qr_scan", "ios": "https://dc.lft.to/lastmile_qr_scan"}, "short_name": "31970", "capacity": 16, "region_id": "40", "name": "First St & Fayette St", "station_id": "889571f8-5774-4097-a31f-4b6e3f5b4381", "lat": 38.817019}, {"lon": -77.182669, "rental_uris": {"android": "https://dc.lft.to/lastmile_qr_scan", "ios": "https://dc.lft.to/lastmile_qr_scan"}, "short_name": "32038", "capacity": 15, "region_id": "43", "name": "King Farm Blvd & Piccard Dr", "station_id": "0825b7cc-1f3f-11e7-bf6b-3863bb334450", "lat": 39.110314}, {"lon": -77.04467564821243, "rental_uris": {"android": "https://dc.lft.to/lastmile_qr_scan", "ios": "https://dc.lft.to/lastmile_qr_scan"}, "short_name": "31968", "capacity": 11, "region_id": "40", "name": "King St & N Pitt St", "station_id": "e84a9c46-89ce-45dc-866f-fe8cbc50e88e", "lat": 38.8048011316311}, {"lon": -77.019347, "rental_uris": {"android": "https://dc.lft.to/lastmile_qr_scan", "ios": "https://dc.lft.to/lastmile_qr_scan"}, "short_name": "31620", "capacity": 31, "region_id": "42", "name": "5th & F St NW", "station_id": "0824a28b-1f3f-11e7-bf6b-3863bb334450", "lat": 38.897222}, {"lon": -77.047783, "rental_uris": {"android": "https://dc.lft.to/lastmile_qr_scan", "ios": "https://dc.lft.to/lastmile_qr_scan"}, "short_name": "31915", "capacity": 15, "region_id": "40", "name": "Powhatan St & Bashford Ln", "station_id": "082630e2-1f3f-11e7-bf6b-3863bb334450", "lat": 38.818748}, {"lon": -77.07166, "rental_uris": {"android": "https://dc.lft.to/lastmile_qr_scan", "ios": "https://dc.lft.to/lastmile_qr_scan"}, "short_name": "31236", "capacity": 23, "region_id": "42", "name": "37th & O St NW / Georgetown University", "station_id": "0824cdb0-1f3f-11e7-bf6b-3863bb334450", "lat": 38.907837}, {"lon": -77.02561318874359, "rental_uris": {"android": "https://dc.lft.to/lastmile_qr_scan", "ios": "https://dc.lft.to/lastmile_qr_scan"}, "short_name": "31424", "capacity": 19, "region_id": "42", "name": "9th & Ingraham St NW", "station_id": "30b5e0c1-7ca6-4050-8566-3fccf0b60890", "lat": 38.95366314394005}, {"lon": -77.086063, "rental_uris": {"android": "https://dc.lft.to/lastmile_qr_scan", "ios": "https://dc.lft.to/lastmile_qr_scan"}, "short_name": "31028", "capacity": 12, "region_id": "41", "name": "N Veitch St & Key Blvd", "station_id": "082524a2-1f3f-11e7-bf6b-3863bb334450", "lat": 38.893237}, {"lon": -77.00356006622314, "rental_uris": {"android": "https://dc.lft.to/lastmile_qr_scan", "ios": "https://dc.lft.to/lastmile_qr_scan"}, "short_name": "31522", "capacity": 19, "region_id": "42", "name": "2nd St & Seaton Pl NE", "station_id": "0826005e-1f3f-11e7-bf6b-3863bb334450", "lat": 38.914751108831155}, {"lon": -77.221807, "rental_uris": {"android": "https://dc.lft.to/lastmile_qr_scan", "ios": "https://dc.lft.to/lastmile_qr_scan"}, "short_name": "32271", "capacity": 12, "region_id": "104", "name": "Madron Ln & Bermudez Ct", "station_id": "83fa4699-b2ee-4f14-af3b-167f34a62fb4", "lat": 38.904415}, {"lon": -77.098093, "rental_uris": {"android": "https://dc.lft.to/lastmile_qr_scan", "ios": "https://dc.lft.to/lastmile_qr_scan"}, "short_name": "31972", "capacity": 15, "region_id": "41", "name": "S Wakefield St & 28th St S", "station_id": "7af26d39-a3b4-4fb3-b5b2-3acd415b9bea", "lat": 38.84404}, {"lon": -77.049383, "rental_uris": {"android": "https://dc.lft.to/lastmile_qr_scan", "ios": "https://dc.lft.to/lastmile_qr_scan"}, "short_name": "31289", "capacity": 19, "region_id": "42", "name": "Henry Bacon Dr & Lincoln Memorial Circle NW", "station_id": "0826233f-1f3f-11e7-bf6b-3863bb334450", "lat": 38.890539}, {"lon": -77.04245209693909, "rental_uris": {"android": "https://dc.lft.to/lastmile_qr_scan", "ios": "https://dc.lft.to/lastmile_qr_scan"}, "short_name": "31224", "capacity": 19, "region_id": "42", "name": "18th & L St NW", "station_id": "0824a5b0-1f3f-11e7-bf6b-3863bb334450", "lat": 38.903741450919384}, {"lon": -77.048911, "rental_uris": {"android": "https://dc.lft.to/lastmile_qr_scan", "ios": "https://dc.lft.to/lastmile_qr_scan"}, "short_name": "31257", "capacity": 15, "region_id": "42", "name": "22nd & I St NW / Foggy Bottom", "station_id": "08254037-1f3f-11e7-bf6b-3863bb334450", "lat": 38.90088}, {"lon": -76.922783, "rental_uris": {"android": "https://dc.lft.to/lastmile_qr_scan", "ios": "https://dc.lft.to/lastmile_qr_scan"}, "short_name": "31728", "capacity": 12, "name": "55th & East Capitol St NE", "station_id": "1950995089993550758", "lat": 38.889926}, {"lon": -77.087128, "rental_uris": {"android": "https://dc.lft.to/lastmile_qr_scan", "ios": "https://dc.lft.to/lastmile_qr_scan"}, "short_name": "31320", "capacity": 19, "region_id": "42", "name": "American University East Campus", "station_id": "ad6ec1ce-db22-47c1-acf3-507897d40725", "lat": 38.936298}, {"lon": -77.04657, "rental_uris": {"android": "https://dc.lft.to/lastmile_qr_scan", "ios": "https://dc.lft.to/lastmile_qr_scan"}, "short_name": "31240", "capacity": 31, "region_id": "42", "name": "Ohio Dr & West Basin Dr SW / MLK & FDR Memorials", "station_id": "0824e68d-1f3f-11e7-bf6b-3863bb334450", "lat": 38.88412}, {"lon": -77.000648, "rental_uris": {"android": "https://dc.lft.to/lastmile_qr_scan", "ios": "https://dc.lft.to/lastmile_qr_scan"}, "short_name": "31500", "capacity": 15, "region_id": "42", "name": "4th & W St NE", "station_id": "0824833c-1f3f-11e7-bf6b-3863bb334450", "lat": 38.919077}, {"lon": -77.09186241030693, "rental_uris": {"android": "https://dc.lft.to/lastmile_qr_scan", "ios": "https://dc.lft.to/lastmile_qr_scan"}, "short_name": "31019", "capacity": 15, "region_id": "41", "name": "Wilson Blvd & N Edgewood St", "station_id": "0824f3d6-1f3f-11e7-bf6b-3863bb334450", "lat": 38.889396070923496}, {"lon": -77.16486, "rental_uris": {"android": "https://dc.lft.to/lastmile_qr_scan", "ios": "https://dc.lft.to/lastmile_qr_scan"}, "short_name": "32069", "capacity": 11, "region_id": "43", "name": "Columbus Ave & Gramercy Blvd", "station_id": "de5bd592-0f48-4c6a-b7fc-8ff687c6e1a5", "lat": 39.12333}, {"lon": -76.983221, "rental_uris": {"android": "https://dc.lft.to/lastmile_qr_scan", "ios": "https://dc.lft.to/lastmile_qr_scan"}, "short_name": "31525", "capacity": 19, "region_id": "42", "name": "Trinidad Rec Center", "station_id": "d0a82ee8-e718-4598-aa5e-dda9292c248c", "lat": 38.906299}, {"lon": -77.055599, "rental_uris": {"android": "https://dc.lft.to/lastmile_qr_scan", "ios": "https://dc.lft.to/lastmile_qr_scan"}, "short_name": "31307", "capacity": 15, "region_id": "42", "name": "3000 Connecticut Ave NW / National Zoo", "station_id": "0825180e-1f3f-11e7-bf6b-3863bb334450", "lat": 38.930282}, {"lon": -76.995227, "rental_uris": {"android": "https://dc.lft.to/lastmile_qr_scan", "ios": "https://dc.lft.to/lastmile_qr_scan"}, "short_name": "32412", "capacity": 15, "region_id": "133", "name": "New Hampshire Ave & East-West Hwy", "station_id": "ae00650a-be2d-4912-8f0d-8338b3754eed", "lat": 38.974205}, {"lon": -77.008775, "rental_uris": {"android": "https://dc.lft.to/lastmile_qr_scan", "ios": "https://dc.lft.to/lastmile_qr_scan"}, "short_name": "31527", "capacity": 15, "region_id": "42", "name": "North Capitol & R St NE", "station_id": "2a76806e-32b4-4ec6-a851-f73ba7dafda1", "lat": 38.91256}, {"lon": -77.0909109, "rental_uris": {"android": "https://dc.lft.to/lastmile_qr_scan", "ios": "https://dc.lft.to/lastmile_qr_scan"}, "short_name": "31390", "capacity": 19, "region_id": "42", "name": "Whitehaven Pkwy & Foxhall Rd NW / GWU Mt. Vernon", "station_id": "55d4e20d-6b27-485e-8115-4046ac2313ea", "lat": 38.916501}, {"lon": -77.084801, "rental_uris": {"android": "https://dc.lft.to/lastmile_qr_scan", "ios": "https://dc.lft.to/lastmile_qr_scan"}, "short_name": "31089", "capacity": 16, "region_id": "41", "name": "Court House Metro / 15th St & N Uhle St", "station_id": "0825fa8b-1f3f-11e7-bf6b-3863bb334450", "lat": 38.890612}, {"lon": -77.032688, "rental_uris": {"android": "https://dc.lft.to/lastmile_qr_scan", "ios": "https://dc.lft.to/lastmile_qr_scan"}, "short_name": "31401", "capacity": 19, "region_id": "42", "name": "14th & Quincy St NW", "station_id": "08247c29-1f3f-11e7-bf6b-3863bb334450", "lat": 38.938024}, {"lon": -77.0388, "rental_uris": {"android": "https://dc.lft.to/lastmile_qr_scan", "ios": "https://dc.lft.to/lastmile_qr_scan"}, "short_name": "31107", "capacity": 23, "region_id": "42", "name": "Lamont & Mt Pleasant NW", "station_id": "082477f4-1f3f-11e7-bf6b-3863bb334450", "lat": 38.9319}, {"lon": -76.952199, "rental_uris": {"android": "https://dc.lft.to/lastmile_qr_scan", "ios": "https://dc.lft.to/lastmile_qr_scan"}, "short_name": "32411", "capacity": 15, "region_id": "133", "name": "Northwestern High School", "station_id": "3dd9e864-a5fc-4c27-b18e-325226089293", "lat": 38.975505}, {"lon": -77.118106, "rental_uris": {"android": "https://dc.lft.to/lastmile_qr_scan", "ios": "https://dc.lft.to/lastmile_qr_scan"}, "short_name": "31945", "capacity": 15, "region_id": "41", "name": "Columbia Pike & S Greenbrier St", "station_id": "f0d7675e-2ce0-41e7-94f5-28ca712fa456", "lat": 38.854019}, {"lon": -77.001095, "rental_uris": {"android": "https://dc.lft.to/lastmile_qr_scan", "ios": "https://dc.lft.to/lastmile_qr_scan"}, "short_name": "31830", "capacity": 15, "region_id": "42", "name": "South Capitol St and Southern Ave SE", "station_id": "9973e0f4-23dd-4b50-9ef4-8408fa8a1105", "lat": 38.821563}, {"lon": -77.028061, "rental_uris": {"android": "https://dc.lft.to/lastmile_qr_scan", "ios": "https://dc.lft.to/lastmile_qr_scan"}, "short_name": "31670", "capacity": 27, "region_id": "42", "name": "12th St & New York Ave NW", "station_id": "b554d2fc-8912-4730-b2cb-9a3e1a96b223", "lat": 38.901104}, {"lon": -77.116206, "rental_uris": {"android": "https://dc.lft.to/lastmile_qr_scan", "ios": "https://dc.lft.to/lastmile_qr_scan"}, "short_name": "31961", "capacity": 11, "region_id": "40", "name": "Fillmore & Bisdorf", "station_id": "a8ffa826-a14d-4bb0-ab33-de6b8c34d190", "lat": 38.83863}, {"lon": -77.00416892766953, "rental_uris": {"android": "https://dc.lft.to/lastmile_qr_scan", "ios": "https://dc.lft.to/lastmile_qr_scan"}, "short_name": "31208", "capacity": 17, "region_id": "42", "name": "M St & New Jersey Ave SE", "station_id": "082486f0-1f3f-11e7-bf6b-3863bb334450", "lat": 38.8762192324865}, {"lon": -77.09308, "rental_uris": {"android": "https://dc.lft.to/lastmile_qr_scan", "ios": "https://dc.lft.to/lastmile_qr_scan"}, "short_name": "31021", "capacity": 15, "region_id": "41", "name": "Clarendon Blvd & N Fillmore St", "station_id": "0824fd71-1f3f-11e7-bf6b-3863bb334450", "lat": 38.8881}, {"lon": -77.056887, "rental_uris": {"android": "https://dc.lft.to/lastmile_qr_scan", "ios": "https://dc.lft.to/lastmile_qr_scan"}, "short_name": "31246", "capacity": 20, "region_id": "42", "name": "M St & Pennsylvania Ave NW", "station_id": "08251984-1f3f-11e7-bf6b-3863bb334450", "lat": 38.905126}, {"lon": -77.077078, "rental_uris": {"android": "https://dc.lft.to/lastmile_qr_scan", "ios": "https://dc.lft.to/lastmile_qr_scan"}, "short_name": "31308", "capacity": 15, "region_id": "42", "name": "39th & Veazey St NW", "station_id": "082544b7-1f3f-11e7-bf6b-3863bb334450", "lat": 38.943837}, {"lon": -76.99353396892548, "rental_uris": {"android": "https://dc.lft.to/lastmile_qr_scan", "ios": "https://dc.lft.to/lastmile_qr_scan"}, "short_name": "31504", "capacity": 19, "region_id": "42", "name": "10th & Monroe St NE", "station_id": "0824bb59-1f3f-11e7-bf6b-3863bb334450", "lat": 38.932456900063606}, {"lon": -77.02094480395317, "rental_uris": {"android": "https://dc.lft.to/lastmile_qr_scan", "ios": "https://dc.lft.to/lastmile_qr_scan"}, "short_name": "31674", "capacity": 19, "region_id": "42", "name": "Maine Ave & Water St SW", "station_id": "a41e5bd2-b599-4c47-a36f-31ffa2e2dd0b", "lat": 38.87674677186661}, {"lon": -76.9472873210907, "rental_uris": {"android": "https://dc.lft.to/lastmile_qr_scan", "ios": "https://dc.lft.to/lastmile_qr_scan"}, "short_name": "31717", "capacity": 19, "region_id": "42", "name": "Kenilworth Terr & Hayes St. NE", "station_id": "07a453e5-2e14-4276-85df-49e0d6144e54", "lat": 38.90046848783359}, {"lon": -76.994716, "rental_uris": {"android": "https://dc.lft.to/lastmile_qr_scan", "ios": "https://dc.lft.to/lastmile_qr_scan"}, "short_name": "31613", "capacity": 23, "region_id": "42", "name": "Pennsylvania Ave & 8th St SE", "station_id": "08249e81-1f3f-11e7-bf6b-3863bb334450", "lat": 38.884275}, {"lon": -76.931862, "rental_uris": {"android": "https://dc.lft.to/lastmile_qr_scan", "ios": "https://dc.lft.to/lastmile_qr_scan"}, "short_name": "31710", "capacity": 11, "region_id": "42", "name": "Nannie Helen Burroughs Ave & 49th St NE", "station_id": "0825ba12-1f3f-11e7-bf6b-3863bb334450", "lat": 38.898536}, {"lon": -77.10933, "rental_uris": {"android": "https://dc.lft.to/lastmile_qr_scan", "ios": "https://dc.lft.to/lastmile_qr_scan"}, "short_name": "32076", "capacity": 15, "region_id": "43", "name": "Citadel Ave & McGrath Blvd", "station_id": "97506e92-1d23-4396-8ec8-e1901ccc22fa", "lat": 39.049}, {"lon": -77.230632, "rental_uris": {"android": "https://dc.lft.to/lastmile_qr_scan", "ios": "https://dc.lft.to/lastmile_qr_scan"}, "short_name": "32262", "capacity": 15, "region_id": "104", "name": "District Ave & Strawberry Ln/Mosaic Market Garage", "station_id": "13a88d55-7065-4bf0-9472-b78e8fafdfb3", "lat": 38.872642}, {"lon": -77.129235, "rental_uris": {"android": "https://dc.lft.to/lastmile_qr_scan", "ios": "https://dc.lft.to/lastmile_qr_scan"}, "short_name": "32081", "capacity": 15, "region_id": "43", "name": "Congressional Ln & E Jefferson St", "station_id": "305ce636-23c1-42f3-a28b-8be4feca2e05", "lat": 39.06219}, {"lon": -77.217664, "rental_uris": {"android": "https://dc.lft.to/lastmile_qr_scan", "ios": "https://dc.lft.to/lastmile_qr_scan"}, "short_name": "32205", "capacity": 11, "region_id": "104", "name": "Westpark & Jones Branch Dr", "station_id": "0826366d-1f3f-11e7-bf6b-3863bb334450", "lat": 38.924437}, {"lon": -77.103662, "rental_uris": {"android": "https://dc.lft.to/lastmile_qr_scan", "ios": "https://dc.lft.to/lastmile_qr_scan"}, "short_name": "31331", "capacity": 19, "region_id": "42", "name": "Arizona Ave & MacArthur Blvd NW", "station_id": "1b1fd2f7-bcbd-43a2-bed1-ddf8e3cc4614", "lat": 38.927294}, {"lon": -77.142317, "rental_uris": {"android": "https://dc.lft.to/lastmile_qr_scan", "ios": "https://dc.lft.to/lastmile_qr_scan"}, "short_name": "31921", "capacity": 15, "region_id": "41", "name": "Westover Library / Washington Blvd & N McKinley Rd", "station_id": "ce3db0b4-8c4f-4c6c-a059-73fff08c1edf", "lat": 38.886048}, {"lon": -77.049417, "rental_uris": {"android": "https://dc.lft.to/lastmile_qr_scan", "ios": "https://dc.lft.to/lastmile_qr_scan"}, "short_name": "31003", "capacity": 16, "region_id": "41", "name": "Crystal Dr & 15th St S", "station_id": "08246cd5-1f3f-11e7-bf6b-3863bb334450", "lat": 38.861056}, {"lon": -77.3630940914154, "rental_uris": {"android": "https://dc.lft.to/lastmile_qr_scan", "ios": "https://dc.lft.to/lastmile_qr_scan"}, "short_name": "32224", "capacity": 11, "region_id": "104", "name": "Town Center Pkwy & Sunset Hills Rd", "station_id": "082653a6-1f3f-11e7-bf6b-3863bb334450", "lat": 38.955170598044894}, {"lon": -76.9599, "rental_uris": {"android": "https://dc.lft.to/lastmile_qr_scan", "ios": "https://dc.lft.to/lastmile_qr_scan"}, "short_name": "31701", "capacity": 15, "region_id": "42", "name": "Branch & Pennsylvania Ave SE", "station_id": "0824c29d-1f3f-11e7-bf6b-3863bb334450", "lat": 38.8692}, {"lon": -77.09525674581528, "rental_uris": {"android": "https://dc.lft.to/lastmile_qr_scan", "ios": "https://dc.lft.to/lastmile_qr_scan"}, "short_name": "31022", "capacity": 21, "region_id": "41", "name": "Clarendon Metro / Wilson Blvd & N Highland St", "station_id": "0824ff6e-1f3f-11e7-bf6b-3863bb334450", "lat": 38.88701007722296}, {"lon": -77.112982, "rental_uris": {"android": "https://dc.lft.to/lastmile_qr_scan", "ios": "https://dc.lft.to/lastmile_qr_scan"}, "short_name": "31919", "capacity": 15, "region_id": "41", "name": "Carlin Springs Rd & N Thomas St", "station_id": "08264392-1f3f-11e7-bf6b-3863bb334450", "lat": 38.876695}, {"lon": -77.0041217, "rental_uris": {"android": "https://dc.lft.to/lastmile_qr_scan", "ios": "https://dc.lft.to/lastmile_qr_scan"}, "short_name": "32085", "capacity": 19, "region_id": "44", "name": "The Shoppes @ Burnt Mills", "station_id": "44b6aaca-6a97-425c-9d95-93a1d836c22d", "lat": 39.0313141}, {"lon": -77.06341624259947, "rental_uris": {"android": "https://dc.lft.to/lastmile_qr_scan", "ios": "https://dc.lft.to/lastmile_qr_scan"}, "short_name": "31006", "capacity": 16, "region_id": "41", "name": "Pentagon Row Plaza / Army Navy Dr & Joyce St", "station_id": "08246e8c-1f3f-11e7-bf6b-3863bb334450", "lat": 38.86331354301248}, {"lon": -77.039511, "rental_uris": {"android": "https://dc.lft.to/lastmile_qr_scan", "ios": "https://dc.lft.to/lastmile_qr_scan"}, "short_name": "31064", "capacity": 17, "region_id": "41", "name": "Gravelly Point", "station_id": "08256742-1f3f-11e7-bf6b-3863bb334450", "lat": 38.865029}, {"lon": -77.038252, "rental_uris": {"android": "https://dc.lft.to/lastmile_qr_scan", "ios": "https://dc.lft.to/lastmile_qr_scan"}, "short_name": "31229", "capacity": 23, "region_id": "42", "name": "New Hampshire Ave & T St NW", "station_id": "0824c376-1f3f-11e7-bf6b-3863bb334450", "lat": 38.915544}, {"lon": -77.061977237463, "rental_uris": {"android": "https://dc.lft.to/lastmile_qr_scan", "ios": "https://dc.lft.to/lastmile_qr_scan"}, "short_name": "31313", "capacity": 15, "region_id": "42", "name": "Connecticut Ave & Tilden St NW", "station_id": "0825c063-1f3f-11e7-bf6b-3863bb334450", "lat": 38.94113915653008}, {"lon": -77.12801456451415, "rental_uris": {"android": "https://dc.lft.to/lastmile_qr_scan", "ios": "https://dc.lft.to/lastmile_qr_scan"}, "short_name": "31976", "capacity": 15, "region_id": "41", "name": "Virginia Hospital Center", "station_id": "5f060548-684b-469b-8825-66c80d77a874", "lat": 38.88791377249907}, {"lon": -77.166917, "rental_uris": {"android": "https://dc.lft.to/lastmile_qr_scan", "ios": "https://dc.lft.to/lastmile_qr_scan"}, "short_name": "32609", "capacity": 12, "region_id": "152", "name": "W Columbia St & N Washington St", "station_id": "33efb11b-052f-437e-ab74-2e6b4661822d", "lat": 38.885621}, {"lon": -77.06282079219818, "rental_uris": {"android": "https://dc.lft.to/lastmile_qr_scan", "ios": "https://dc.lft.to/lastmile_qr_scan"}, "short_name": "31913", "capacity": 15, "region_id": "40", "name": "Commonwealth Ave & E Monroe Ave", "station_id": "08262094-1f3f-11e7-bf6b-3863bb334450", "lat": 38.82005823354218}, {"lon": -77.235955, "rental_uris": {"android": "https://dc.lft.to/lastmile_qr_scan", "ios": "https://dc.lft.to/lastmile_qr_scan"}, "short_name": "32201", "capacity": 11, "region_id": "104", "name": "Westpark Dr & Leesburg Pike", "station_id": "082634c6-1f3f-11e7-bf6b-3863bb334450", "lat": 38.92403}, {"lon": -77.002161, "rental_uris": {"android": "https://dc.lft.to/lastmile_qr_scan", "ios": "https://dc.lft.to/lastmile_qr_scan"}, "short_name": "31669", "capacity": 23, "region_id": "42", "name": "3rd & M St SE", "station_id": "60e5f9b2-611b-4713-b34a-8ce2c2ee8ac8", "lat": 38.876823}, {"lon": -76.926596, "rental_uris": {"android": "https://dc.lft.to/lastmile_qr_scan", "ios": "https://dc.lft.to/lastmile_qr_scan"}, "short_name": "31722", "capacity": 15, "region_id": "42", "name": "Woody Ward Rec Center", "station_id": "c51f0090-a4f9-416d-a18b-6e0505b1dca1", "lat": 38.879575}, {"lon": -77.001955, "rental_uris": {"android": "https://dc.lft.to/lastmile_qr_scan", "ios": "https://dc.lft.to/lastmile_qr_scan"}, "short_name": "31269", "capacity": 15, "region_id": "42", "name": "3rd St & Pennsylvania Ave SE", "station_id": "08256a59-1f3f-11e7-bf6b-3863bb334450", "lat": 38.887378}, {"lon": -77.082089, "rental_uris": {"android": "https://dc.lft.to/lastmile_qr_scan", "ios": "https://dc.lft.to/lastmile_qr_scan"}, "short_name": "31924", "capacity": 15, "region_id": "41", "name": "Wilson Blvd & N Troy St", "station_id": "d39e9b29-0ba7-453f-9f1e-b0a856d448b7", "lat": 38.892556}, {"lon": -76.9784, "rental_uris": {"android": "https://dc.lft.to/lastmile_qr_scan", "ios": "https://dc.lft.to/lastmile_qr_scan"}, "short_name": "31804", "capacity": 11, "region_id": "42", "name": "Anacostia Library", "station_id": "0824980b-1f3f-11e7-bf6b-3863bb334450", "lat": 38.865784}, {"lon": -77.109366, "rental_uris": {"android": "https://dc.lft.to/lastmile_qr_scan", "ios": "https://dc.lft.to/lastmile_qr_scan"}, "short_name": "31034", "capacity": 15, "region_id": "41", "name": "Fairfax Dr & N Randolph St", "station_id": "0825275b-1f3f-11e7-bf6b-3863bb334450", "lat": 38.882629},